id_mutation,date_mutation,numero_disposition,nature_mutation,valeur_fonciere,adresse_numero,adresse_suffixe,adresse_nom_voie,adresse_code_voie,code_postal,code_commune,nom_commune,code_departement,ancien_code_commune,ancien_nom_commune,id_parcelle,ancien_id_parcelle,numero_volume,lot1_numero,lot1_surface_carrez,lot2_numero,lot2_surface_carrez,lot3_numero,lot3_surface_carrez,lot4_numero,lot4_surface_carrez,lot5_numero,lot5_surface_carrez,nombre_lots,code_type_local,type_local,surface_reelle_bati,nombre_pieces_principales,code_nature_culture,nature_culture,code_nature_culture_speciale,nature_culture_speciale,surface_terrain,longitude,latitude
2015-1168395,2015-01-05,000001,Vente,385000,1,,RUE LANCRET,5313,75016,75116,Paris 16e Arrondissement,75,,,75116000AH0006,,,1,37.52,,,,,,,,,1,2,Appartement,39,2,,,,,,2.266194,48.841789
2015-1168396,2015-01-13,000001,Vente,120000,16,,RUE DE CHAILLOT,1680,75016,75116,Paris 16e Arrondissement,75,,,75116000FP0031,,,46,9.94,,,,,,,,,1,3,Dépendance,,0,,,,,,2.297553,48.867162
2015-1168397,2015-01-08,000001,Vente,480000,9,,AV MARCEAU,5997,75016,75116,Paris 16e Arrondissement,75,,,75116000FP0062,,,30,38.1,32,3.8,,,,,,,2,2,Appartement,50,2,,,,,,2.299149,48.865955
2015-1168397,2015-01-08,000001,Vente,480000,9,,AV MARCEAU,5997,75016,75116,Paris 16e Arrondissement,75,,,75116000FP0062,,,30,38.1,,,,,,,,,1,3,Dépendance,,0,,,,,,2.299149,48.865955
2015-1168398,2015-01-05,000001,Vente,3250000,1,,AV PDT WILSON,7804,75016,75116,Paris 16e Arrondissement,75,,,75116000FU0019,,,10,196.25,85,,,,,,,,2,2,Appartement,198,6,,,,,,2.300244,48.864703
2015-1168399,2015-01-09,000001,Vente,55000,3,,RUE ROBERT LE COIN,8262,75016,75116,Paris 16e Arrondissement,75,,,75116000CK0052,,,116,,,,,,,,,,1,3,Dépendance,,0,,,,,,,
2015-1168400,2015-01-07,000001,Vente,650000,75,,RUE MICHEL ANGE,6324,75016,75116,Paris 16e Arrondissement,75,,,75116000AQ0070,,,123,,,,,,,,,,1,3,Dépendance,,0,,,,,,2.259991,48.842219
2015-1168400,2015-01-07,000001,Vente,650000,75,,RUE MICHEL ANGE,6324,75016,75116,Paris 16e Arrondissement,75,,,75116000AQ0070,,,45,83.23,,,,,,,,,1,2,Appartement,82,3,,,,,,2.259991,48.842219
2015-1168401,2015-01-05,000001,Vente,1100000,33,,RUE DAVIOUD,2606,75016,75116,Paris 16e Arrondissement,75,,,75116000CL0023,,,10,,26,,37,,38,,,,4,2,Appartement,85,2,,,,,,2.270856,48.854725
2015-1168402,2015-01-12,000001,Vente,1630000,4,,RUE PICOT,7399,75016,75116,Paris 16e Arrondissement,75,,,75116000ES0036,,,1,,14,,3,,,,,,3,2,Appartement,217,6,,,,,,2.28226,48.870704
2015-1168403,2015-01-09,000001,Vente,319048,9,,RUE BENJAMIN FRANKLIN,3822,75016,75116,Paris 16e Arrondissement,75,,,75116000DP0089,,,13,42.54,5,,,,,,,,2,2,Appartement,39,2,,,,,,2.284927,48.859509
2015-1168404,2015-01-20,000001,Vente,1060900,9,,RUE MERIMEE,6276,75016,75116,Paris 16e Arrondissement,75,,,75116000EA0054,,,213,,53,,,,,,,,2,2,Appartement,92,4,,,,,,2.279059,48.868215
2015-1168404,2015-01-20,000001,Vente,1060900,11,,RUE MERIMEE,6276,75016,75116,Paris 16e Arrondissement,75,,,75116000EA0054,,,180,,,,,,,,,,1,3,Dépendance,,0,,,,,,2.279059,48.868215
2015-1168405,2015-01-09,000001,Vente,747025,9,,AV FREMIET,3856,75016,75116,Paris 16e Arrondissement,75,,,75116000CF0006,,,7,,,,,,,,,,1,2,Appartement,86,3,,,,,,2.284675,48.856647
2015-1168405,2015-01-09,000001,Vente,747025,9,,AV FREMIET,3856,75016,75116,Paris 16e Arrondissement,75,,,75116000CF0006,,,21,,,,,,,,,,1,3,Dépendance,,0,,,,,,2.284675,48.856647
2015-1168406,2015-01-05,000001,Vente,600000,46,,RUE DE LA TOUR,9362,75016,75116,Paris 16e Arrondissement,75,,,75116000DP0051,,,382,,46,70.55,,,,,,,2,2,Appartement,73,3,,,,,,2.282282,48.86015
2015-1168407,2015-01-09,000001,Vente,470000,18,A,RUE MESNIL,6288,75016,75116,Paris 16e Arrondissement,75,,,75116000DX0062,,,406,,414,53.63,,,,,,,2,2,Appartement,54,3,,,,,,2.283203,48.868047
2015-1168408,2015-01-06,000001,Vente,380000,39,B,AV PAUL DOUMER,7149,75016,75116,Paris 16e Arrondissement,75,,,75116000DP0058,,,46,57.2,7,,,,,,,,2,2,Appartement,58,2,,,,,,2.282231,48.860372
2015-1168409,2015-01-16,000001,Vente,770950,6,,RUE ADOLPHE YVON,0071,75016,75116,Paris 16e Arrondissement,75,,,75116000EC0021,,,180,,,,,,,,,,1,3,Dépendance,,0,,,,,,2.27133,48.864598
2015-1168409,2015-01-16,000001,Vente,770950,6,,RUE ADOLPHE YVON,0071,75016,75116,Paris 16e Arrondissement,75,,,75116000EC0021,,,152,,161,79.1,,,,,,,2,2,Appartement,76,3,,,,,,2.27133,48.864598
2015-1168410,2015-01-05,000001,Vente,1005000,23,,RUE WEBER,9957,75016,75116,Paris 16e Arrondissement,75,,,75116000EW0051,,,52,,,,,,,,,,1,3,Dépendance,,0,,,,,,2.281015,48.875382
2015-1168410,2015-01-05,000001,Vente,1005000,23,,RUE WEBER,9957,75016,75116,Paris 16e Arrondissement,75,,,75116000EW0051,,,39,,80,129.07,,,,,,,2,2,Appartement,132,4,,,,,,2.281015,48.875382
2015-1168411,2015-01-09,000001,Vente,52350,41,,RUE DE PASSY,7087,75016,75116,Paris 16e Arrondissement,75,,,75116000CH0031,,,270,,,,,,,,,,1,3,Dépendance,,0,,,,,,2.280917,48.857547
2015-1168412,2015-01-14,000001,Vente,130000,22,,RUE DE CHAILLOT,1680,75016,75116,Paris 16e Arrondissement,75,,,75116000FO0062,,,8,13,89,,,,,,,,2,3,Dépendance,,0,,,,,,2.298013,48.86749
2015-1168413,2015-01-06,000001,Vente,210000,146,B,QUAI LOUIS BLERIOT,5766,75016,75116,Paris 16e Arrondissement,75,,,75116000AH0021,,,119,,121,,123,,132,,154,,5,2,Appartement,37,2,,,,,,2.268177,48.841541
2015-1168414,2015-01-20,000001,Vente,49000,60,,AV HENRI MARTIN,4567,75016,75116,Paris 16e Arrondissement,75,,,75116000EB0067,,,41,,,,,,,,,,1,3,Dépendance,,0,,,,,,2.277072,48.864552
2015-1168415,2015-01-27,000001,Vente,3510000,47,,RUE DE CHAILLOT,1680,75016,75116,Paris 16e Arrondissement,75,,,75116000FO0038,,,44,,,,,,,,,,1,3,Dépendance,,0,,,,,,2.297976,48.868446
2015-1168415,2015-01-27,000001,Vente,3510000,27,,AV MARCEAU,5997,75016,75116,Paris 16e Arrondissement,75,,,75116000FP0037,,,22,,,,,,,,,,1,3,Dépendance,,0,,,,,,2.29893,48.867044
2015-1168415,2015-01-27,000001,Vente,3510000,27,,AV MARCEAU,5997,75016,75116,Paris 16e Arrondissement,75,,,75116000FP0037,,,12,,34,,,,,,,,2,2,Appartement,230,7,,,,,,2.29893,48.867044
2015-1168416,2015-01-08,000001,Vente,900000,34,,RUE LAURISTON,5401,75016,75116,Paris 16e Arrondissement,75,,,75116000FF0017,,,94,91.02,,,,,,,,,1,2,Appartement,100,4,,,,,,2.290914,48.870825
2015-1168417,2015-01-13,000001,Vente,53000,5,,AV ST HONORE D EYLAU,8637,75016,75116,Paris 16e Arrondissement,75,,,75116000FK0113,,,427,,,,,,,,,,1,2,Appartement,8,1,,,,,,2.286727,48.867548
2015-1168418,2015-01-05,000001,Vente,86000,17,,AV RAYMOND POINCARE,8059,75016,75116,Paris 16e Arrondissement,75,,,75116000DU0013,,,366,,,,,,,,,,1,3,Dépendance,,0,,,,,,2.286047,48.864784
2015-1168419,2015-01-05,000001,Vente,1879000,102,,AV KLEBER,5159,75016,75116,Paris 16e Arrondissement,75,,,75116000FL0095,,,19,,21,,57,285.5,62,,,,4,2,Appartement,274,7,,,,,,2.288389,48.865477
2015-1168419,2015-01-05,000001,Vente,1879000,102,,AV KLEBER,5159,75016,75116,Paris 16e Arrondissement,75,,,75116000FL0095,,,79,7.93,,,,,,,,,1,3,Dépendance,,0,,,,,,2.288389,48.865477
2015-1168420,2015-01-16,000001,Vente,750000,3,,RUE LYAUTEY,5864,75016,75116,Paris 16e Arrondissement,75,,,75116000CH0019,,,20,102.88,,,,,,,,,1,3,Dépendance,,0,,,,,,2.281435,48.8567
2015-1168420,2015-01-16,000001,Vente,750000,3,,RUE LYAUTEY,5864,75016,75116,Paris 16e Arrondissement,75,,,75116000CH0019,,,20,102.88,7,,,,,,,,2,2,Appartement,105,4,,,,,,2.281435,48.8567
2015-1168421,2015-01-15,000001,Vente,115000,95,,RUE DE PASSY,7087,75016,75116,Paris 16e Arrondissement,75,,,75116000CI0004,,,33,10.08,,,,,,,,,1,2,Appartement,12,1,,,,,,2.275227,48.857892
2015-1168422,2015-01-08,000001,Vente,610000,12,,BD EXELMANS,3465,75016,75116,Paris 16e Arrondissement,75,,,75116000AG0026,,,148,,,,,,,,,,1,3,Dépendance,,0,,,,,,2.266696,48.840529
2015-1168422,2015-01-08,000001,Vente,610000,12,,BD EXELMANS,3465,75016,75116,Paris 16e Arrondissement,75,,,75116000AG0026,,,108,,137,85.31,,,,,,,2,2,Appartement,86,3,,,,,,2.266696,48.840529
2015-1168423,2015-01-23,000001,Vente,1525000,91,,RUE MICHEL ANGE,6324,75016,75116,Paris 16e Arrondissement,75,,,75116000AS0027,,,143,,144,,361,181.97,,,,,3,2,Appartement,185,6,,,,,,2.258792,48.840436
2015-1168423,2015-01-23,000001,Vente,1525000,35,,RUE PARENT DE ROSAN,7063,75016,75116,Paris 16e Arrondissement,75,,,75116000AS0027,,,310,,,,,,,,,,1,3,Dépendance,,0,,,,,,2.258792,48.840436
2015-1168424,2015-01-07,000001,Vente,1550000,94,,BD FLANDRIN,3663,75016,75116,Paris 16e Arrondissement,75,,,75116000ER0010,,,1044,201.43,1218,,,,,,,,2,2,Appartement,205,6,,,,,,2.276294,48.870637
2015-1168425,2015-01-29,000001,Vente,90000,84,,RUE JEAN DE LA FONTAINE,5249,75016,75116,Paris 16e Arrondissement,75,,,75116000BW0037,,,34,9.49,,,,,,,,,1,3,Dépendance,,0,,,,,,2.268966,48.849996
2015-1168426,2015-01-13,000001,Vente,75000,15,,RUE PETRARQUE,7356,75016,75116,Paris 16e Arrondissement,75,,,75116000DS0004,,,72,21.78,,,,,,,,,1,2,Appartement,10,1,,,,,,2.283225,48.861542
2015-1168427,2015-01-12,000001,Vente,408150,47,,RUE ERLANGER,3320,75016,75116,Paris 16e Arrondissement,75,,,75116000AO0003,,,179,45.55,316,,,,,,,,2,2,Appartement,41,2,,,,,,2.260636,48.845026
2015-1168428,2015-01-20,000001,Vente,535000,61,,RUE SAINT DIDIER,8527,75016,75116,Paris 16e Arrondissement,75,,,75116000DW0056,,,17,,6,69.47,,,,,,,2,2,Appartement,72,3,,,,,,2.281928,48.86745
2015-1168429,2015-01-16,000001,Vente,600000,58,,RUE DES BELLES FEUILLES,0830,75016,75116,Paris 16e Arrondissement,75,,,75116000DY0030,,,4,68.95,,,,,,,,,1,2,Appartement,70,2,,,,,,2.280305,48.869367
2015-1168430,2015-01-12,000001,Vente,60000,21,,AV FOCH,3696,75016,75116,Paris 16e Arrondissement,75,,,75116000FC0006,,,137,,,,,,,,,,1,3,Dépendance,,0,,,,,,2.289144,48.872226
2015-1168431,2015-01-23,000001,Vente,252500,8,,RUE CHARLES TELLIER,1876,75016,75116,Paris 16e Arrondissement,75,,,75116000AE0018,,,25,31.66,51,,,,,,,,2,2,Appartement,34,1,,,,,,2.262476,48.838501
2015-1168432,2015-01-14,000001,Vente,477000,68,,AV DE VERSAILLES,9706,75016,75116,Paris 16e Arrondissement,75,,,75116000AK0013,,,15,71.15,53,,,,,,,,2,2,Appartement,69,2,,,,,,2.272604,48.846753
2015-1168433,2015-01-09,000001,Vente,2400000,7,,RUE DE L ALBONI,0136,75016,75116,Paris 16e Arrondissement,75,,,75116000CG0071,,,16,266.33,,,,,,,,,1,3,Dépendance,,0,,,,,,2.284724,48.858234
2015-1168433,2015-01-09,000001,Vente,2400000,7,,RUE DE L ALBONI,0136,75016,75116,Paris 16e Arrondissement,75,,,75116000CG0071,,,16,266.33,,,,,,,,,1,2,Appartement,262,7,,,,,,2.284724,48.858234
2015-1168433,2015-01-09,000001,Vente,2400000,7,,RUE DE L ALBONI,0136,75016,75116,Paris 16e Arrondissement,75,,,75116000CG0071,,,16,266.33,,,,,,,,,1,3,Dépendance,,0,,,,,,2.284724,48.858234
2015-1168433,2015-01-09,000001,Vente,2400000,7,,RUE DE L ALBONI,0136,75016,75116,Paris 16e Arrondissement,75,,,75116000CG0071,,,16,266.33,,,,,,,,,1,3,Dépendance,,0,,,,,,2.284724,48.858234
2015-1168434,2015-01-20,000001,Vente,206300,13,,RUE ERLANGER,3320,75016,75116,Paris 16e Arrondissement,75,,,75116000AN0022,,,26,24.36,,,,,,,,,1,3,Dépendance,,0,,,,,,2.262027,48.846956
2015-1168435,2015-01-14,000001,Vente,535000,21,,RUE ERLANGER,3320,75016,75116,Paris 16e Arrondissement,75,,,75116000AN0018,,,223,58.16,324,,,,,,,,2,2,Appartement,57,2,,,,,,2.261756,48.846353
2015-1168435,2015-01-14,000001,Vente,535000,21,,RUE ERLANGER,3320,75016,75116,Paris 16e Arrondissement,75,,,75116000AN0018,,,379,,,,,,,,,,1,3,Dépendance,,0,,,,,,2.261756,48.846353
2015-1168436,2015-01-08,000001,Vente,1720000,82,,RUE DE LA FAISANDERIE,3487,75016,75116,Paris 16e Arrondissement,75,,,75116000ED0033,,,23,,,,,,,,,,1,2,Appartement,168,6,,,,,,2.274371,48.867182
2015-1168436,2015-01-08,000001,Vente,1720000,82,,RUE DE LA FAISANDERIE,3487,75016,75116,Paris 16e Arrondissement,75,,,75116000ED0033,,,144,,,,,,,,,,1,2,Appartement,86,4,,,,,,2.274371,48.867182
2015-1168436,2015-01-08,000001,Vente,1720000,82,,RUE DE LA FAISANDERIE,3487,75016,75116,Paris 16e Arrondissement,75,,,75116000ED0033,,,268,,,,,,,,,,1,3,Dépendance,,0,,,,,,2.274371,48.867182
2015-1168437,2015-01-19,000001,Vente,120000,59,,RUE D AUTEUIL,0594,75016,75116,Paris 16e Arrondissement,75,,,75116000AN0033,,,26,12.58,,,,,,,,,1,2,Appartement,10,1,,,,,,2.26303,48.847455
2015-1168438,2015-01-07,000001,Vente,611100,6,,RUE EUGENE DELACROIX,3409,75016,75116,Paris 16e Arrondissement,75,,,75116000DJ0099,,,13,57.16,,,,,,,,,1,2,Appartement,57,2,,,,,,2.277862,48.863102
2015-1168439,2015-01-08,000001,Vente,110000,16,,BD FLANDRIN,3663,75016,75116,Paris 16e Arrondissement,75,,,75116000EC0034,,,62,,,,,,,,,,1,3,Dépendance,,0,,,,,,2.27295,48.865735
2015-1168439,2015-01-08,000001,Vente,110000,16,,BD FLANDRIN,3663,75016,75116,Paris 16e Arrondissement,75,,,75116000EC0034,,,125,,,,,,,,,,1,2,Appartement,60,2,,,,,,2.27295,48.865735
2015-1168440,2015-01-07,000001,Vente,43000,80,,AV VICTOR HUGO,9761,75016,75116,Paris 16e Arrondissement,75,,,75116000DX0047,,,641,,,,,,,,,,1,3,Dépendance,,0,,,,,,2.28405,48.869527
2015-1168441,2015-01-05,000001,Vente,880000,119,,RUE DE LONGCHAMP,5744,75016,75116,Paris 16e Arrondissement,75,,,75116000ED0096,,,34,,6,102.64,,,,,,,2,2,Appartement,105,4,,,,,,2.27821,48.867049
2015-1168442,2015-01-09,000001,Vente,384000,10,,RUE DEGAS,2643,75016,75116,Paris 16e Arrondissement,75,,,75116000CA0003,,,18,50.01,4,,,,,,,,2,2,Appartement,51,1,,,,,,2.274519,48.849103
2015-1168443,2015-01-09,000001,Vente,945750,130,,AV DE VERSAILLES,9706,75016,75116,Paris 16e Arrondissement,75,,,75116000AI0015,,,140,,38,115.78,,,,,,,2,2,Appartement,185,4,,,,,,2.26696,48.842111
2015-1168444,2015-01-16,000001,Vente,180000,13,,VC CHAUSSEE DE LA MUETTE,6631,75016,75116,Paris 16e Arrondissement,75,,,75116000CM0023,,,104,,,,,,,,,,1,3,Dépendance,,0,,,,,,2.273382,48.857878
2015-1168445,2015-01-07,000001,Vente,37000,11,,RUE PARENT DE ROSAN,7063,75016,75116,Paris 16e Arrondissement,75,,,75116000AS0048,,,2087,,,,,,,,,,1,3,Dépendance,,0,,,,,,2.259957,48.839485
2015-1168446,2015-01-07,000001,Vente,413544,35,B,RUE JEAN DE LA FONTAINE,5249,75016,75116,Paris 16e Arrondissement,75,,,75116000BZ0019,,,8,51.07,,,,,,,,,1,2,Appartement,47,2,,,,,,2.271529,48.850601
2015-1168447,2015-01-12,000001,Vente,118000,17,,RUE MESNIL,6288,75016,75116,Paris 16e Arrondissement,75,,,75116000DW0079,,,1181,15.6,,,,,,,,,1,2,Appartement,15,1,,,,,,2.284633,48.867541
2015-1168448,2015-01-07,000001,Vente,115000,10,,RUE ALBERIC MAGNARD,0112,75016,75116,Paris 16e Arrondissement,75,,,75116000DG0051,,,151,,,,,,,,,,1,3,Dépendance,,0,,,,,,2.271962,48.860846
2015-1168449,2015-01-07,000001,Vente,400000,1,,RUE JACQUES OFFENBACH,4802,75016,75116,Paris 16e Arrondissement,75,,,75116000CM0077,,,23,47.87,24,,,,,,,,2,2,Appartement,49,2,,,,,,2.272756,48.856209
2015-1168450,2015-01-06,000001,Vente,275000,19,,AV PAUL DOUMER,7149,75016,75116,Paris 16e Arrondissement,75,,,75116000DS0012,,,1135,,,,,,,,,,1,3,Dépendance,,0,,,,,,2.284183,48.860985
2015-1168450,2015-01-06,000001,Vente,275000,19,,AV PAUL DOUMER,7149,75016,75116,Paris 16e Arrondissement,75,,,75116000DS0012,,,1061,,,,,,,,,,1,2,Appartement,31,1,,,,,,2.284183,48.860985
2015-1168451,2015-01-23,000001,Vente,25000,13,,RUE BOILEAU,1058,75016,75116,Paris 16e Arrondissement,75,,,75116000AM0002,,,11,,,,,,,,,,1,3,Dépendance,,0,,,,,,2.26572,48.846629
2015-1168452,2015-01-05,000001,Vente,262000,26,,RUE DE LA SOURCE,9051,75016,75116,Paris 16e Arrondissement,75,,,75116000BR0131,,,182,,,,,,,,,,1,3,Dépendance,,0,,,,,,2.266536,48.850993
2015-1168452,2015-01-05,000001,Vente,262000,26,,RUE DE LA SOURCE,9051,75016,75116,Paris 16e Arrondissement,75,,,75116000BR0131,,,106,,36,,,,,,,,2,2,Appartement,24,1,,,,,,2.266536,48.850993
2015-1168453,2015-01-06,000001,Vente,42000,1,,RUE DES BAUCHES,0722,75016,75116,Paris 16e Arrondissement,75,,,75116000CK0067,,,78,,,,,,,,,,1,3,Dépendance,,0,,,,,,2.274594,48.855322
2015-1168454,2015-01-12,000001,Vente,160000,4,,RUE PICOT,7399,75016,75116,Paris 16e Arrondissement,75,,,75116000ES0036,,,24,9.66,,,,,,,,,1,3,Dépendance,,0,,,,,,2.28226,48.870704
2015-1168454,2015-01-12,000001,Vente,160000,4,,RUE PICOT,7399,75016,75116,Paris 16e Arrondissement,75,,,75116000ES0036,,,23,9.44,,,,,,,,,1,3,Dépendance,,0,,,,,,2.28226,48.870704
2015-1168455,2015-01-06,000001,Vente,85000,8,,RUE LEON BONNAT,5530,75016,75116,Paris 16e Arrondissement,75,,,75116000BV0045,,,53,9.58,,,,,,,,,1,3,Dépendance,,0,,,,,,2.270364,48.851678
2015-1168456,2015-01-12,000001,Vente,575000,8,,RUE OSWALDO CRUZ,6964,75016,75116,Paris 16e Arrondissement,75,,,75116000CN0005,,,101,84.74,147,,,,,,,,2,2,Appartement,90,2,,,,,,2.269597,48.856652
2015-1168457,2015-01-07,000001,Vente,165000,28,,RUE PARENT DE ROSAN,7063,75016,75116,Paris 16e Arrondissement,75,,,75116000AV0082,,,93,18.65,,,,,,,,,1,2,Appartement,17,1,,,,,,2.259956,48.840664
2015-1168458,2015-01-22,000001,Vente,50000,41,,RUE DE PASSY,7087,75016,75116,Paris 16e Arrondissement,75,,,75116000CH0031,,,269,,,,,,,,,,1,4,Local industriel. commercial ou assimilé,,0,,,,,,2.280917,48.857547
2015-1168459,2015-01-05,000001,Vente,285000,7,,VLA VICTORIEN SARDOU,9769,75016,75116,Paris 16e Arrondissement,75,,,75116000AI0059,,,1,37.33,2,,,,,,,,2,2,Appartement,42,2,,,,,,2.267243,48.843128
2015-1168460,2015-01-16,000001,Vente,2330000,2,,AV D IENA,4693,75016,75116,Paris 16e Arrondissement,75,,,75116000FQ0026,,,236,,,,,,,,,,1,3,Dépendance,,0,,,,,,2.292751,48.862976
2015-1168460,2015-01-16,000001,Vente,2330000,2,,AV D IENA,4693,75016,75116,Paris 16e Arrondissement,75,,,75116000FQ0026,,,165,,83,190.17,,,,,,,2,2,Appartement,193,4,,,,,,2.292751,48.862976
2015-1168461,2015-01-12,000001,Vente,1530000,16,,RUE DE MAGDEBOURG,5901,75016,75116,Paris 16e Arrondissement,75,,,75116000FR0040,,,15,135.46,18,,,,,,,,2,2,Appartement,139,3,,,,,,2.289844,48.864467
2015-1168462,2015-01-23,000001,Vente,674500,20,,RUE DE VARIZE,9603,75016,75116,Paris 16e Arrondissement,75,,,75116000AV0015,,,97,,,,,,,,,,1,2,Appartement,52,2,,,,,,2.257429,48.842348
2015-1168462,2015-01-23,000001,Vente,674500,20,,RUE DE VARIZE,9603,75016,75116,Paris 16e Arrondissement,75,,,75116000AV0015,,,75,,,,,,,,,,1,3,Dépendance,,0,,,,,,2.257429,48.842348
2015-1168462,2015-01-23,000001,Vente,674500,20,,RUE DE VARIZE,9603,75016,75116,Paris 16e Arrondissement,75,,,75116000AV0015,,,34,,74,,,,,,,,2,3,Dépendance,,0,,,,,,2.257429,48.842348
2015-1168462,2015-01-23,000001,Vente,674500,20,,RUE DE VARIZE,9603,75016,75116,Paris 16e Arrondissement,75,,,75116000AV0015,,,76,,,,,,,,,,1,3,Dépendance,,0,,,,,,2.257429,48.842348
2015-1168463,2015-01-15,000001,Vente,774676,33,,AV FOCH,3696,75016,75116,Paris 16e Arrondissement,75,,,75116000FD0013,,,1,60.6,282,,,,,,,,2,2,Appartement,65,2,,,,,,2.286709,48.871955
2015-1168463,2015-01-15,000001,Vente,774676,33,,AV FOCH,3696,75016,75116,Paris 16e Arrondissement,75,,,75116000FD0013,,,415,,,,,,,,,,1,3,Dépendance,,0,,,,,,2.286709,48.871955
2015-1168464,2015-01-23,000001,Vente,1165000,65,,AV PAUL DOUMER,7149,75016,75116,Paris 16e Arrondissement,75,,,75116000DO0030,,,46,,48,,49,,50,,,,4,2,Appartement,135,4,,,,,,2.280207,48.859857
2015-1168464,2015-01-23,000001,Vente,1165000,65,,AV PAUL DOUMER,7149,75016,75116,Paris 16e Arrondissement,75,,,75116000DO0030,,,6,,,,,,,,,,1,3,Dépendance,,0,,,,,,2.280207,48.859857
2015-1168465,2015-01-20,000001,Vente,130400,56,,RUE BOULAINVILLIERS,1154,75016,75116,Paris 16e Arrondissement,75,,,75116000CI0109,,,96,18.19,,,,,,,,,1,2,Appartement,16,1,,,,,,2.275365,48.857362
2015-1168466,2015-01-13,000001,Vente,201000,51,,RUE LE MAROIS,5500,75016,75116,Paris 16e Arrondissement,75,,,75116000AD0059,,,1,35.78,,,,,,,,,1,2,Appartement,37,2,,,,,,2.259159,48.837612
2015-1168467,2015-01-23,000001,Vente,37000,122,,RUE LAURISTON,5401,75016,75116,Paris 16e Arrondissement,75,,,75116000DW0111,,,139,,,,,,,,,,1,3,Dépendance,,0,,,,,,2.284901,48.865496
2015-1168468,2015-01-09,000001,Vente,665000,2,,VLA CHANEZ,1742,75016,75116,Paris 16e Arrondissement,75,,,75116000AZ0050,,,89,81.91,,,,,,,,,1,2,Appartement,82,4,,,,,,2.260591,48.847425
2015-1168469,2015-01-13,000001,Vente,343700,5,,RUE GUDIN,4357,75016,75116,Paris 16e Arrondissement,75,,,75116000AD0060,,,3,37.8,35,,,,,,,,2,2,Appartement,38,2,,,,,,2.259239,48.837556
2015-1168470,2015-01-15,000001,Vente,35000,11,,RUE PARENT DE ROSAN,7063,75016,75116,Paris 16e Arrondissement,75,,,75116000AS0048,,,2322,,,,,,,,,,1,3,Dépendance,,0,,,,,,2.259957,48.839485
2015-1168471,2015-01-23,000001,Vente,20.15,25,,AV PIERRE 1ER SERBIE,7471,75016,75116,Paris 16e Arrondissement,75,,,75116000FP0030,,,26,20.15,,,,,,,,,1,2,Appartement,30,1,,,,,,2.297539,48.866982
2015-1168472,2015-01-09,000001,Vente,2250000,8,,RUE JEAN RICHEPIN,4945,75016,75116,Paris 16e Arrondissement,75,,,75116000DI0060,,,35,250.8,9,,,,,,,,2,2,Appartement,254,7,,,,,,2.274578,48.861782
2015-1168472,2015-01-09,000001,Vente,2250000,8,,RUE JEAN RICHEPIN,4945,75016,75116,Paris 16e Arrondissement,75,,,75116000DI0060,,,19,,,,,,,,,,1,3,Dépendance,,0,,,,,,2.274578,48.861782
2015-1168473,2015-01-16,000001,Vente,785000,11,,RUE POUSSIN,7774,75016,75116,Paris 16e Arrondissement,75,,,75116000BQ0112,,,74,83.38,76,,,,,,,,2,2,Appartement,80,4,,,,,,2.264374,48.848607
2015-1168474,2015-01-05,000001,Vente,540000,12,,BD FLANDRIN,3663,75016,75116,Paris 16e Arrondissement,75,,,75116000EC0033,,,21,52.04,7,,,,,,,,2,2,Appartement,63,2,,,,,,2.272975,48.865474
2015-1168475,2015-01-31,000001,Vente,475000,26,,QUAI LOUIS BLERIOT,5766,75016,75116,Paris 16e Arrondissement,75,,,75116000CA0047,,,18,,2,53.54,,,,,,,2,2,Appartement,52,2,,,,,,2.276428,48.849489
2015-1168476,2015-01-09,000001,Vente,1100000,6,,RUE ERLANGER,3320,75016,75116,Paris 16e Arrondissement,75,,,75116000AZ0056,,,129,,,,,,,,,,1,3,Dépendance,,0,,,,,,2.261581,48.847593
2015-1168476,2015-01-09,000001,Vente,1100000,58,,RUE D AUTEUIL,0594,75016,75116,Paris 16e Arrondissement,75,,,75116000BQ0137,,,11,130.05,42,,,,,,,,2,2,Appartement,125,4,,,,,,2.262086,48.848164
2015-1168477,2015-01-13,000001,Vente,30000,41,,RUE GALILEE,3923,75016,75116,Paris 16e Arrondissement,75,,,75116000FH0035,,,124,,,,,,,,,,1,3,Dépendance,,0,,,,,,2.296486,48.870471
2015-1168478,2015-01-23,000001,Vente,2400000,31,,RUE DU GAL DELESTRAINT,4029,75016,75116,Paris 16e Arrondissement,75,,,75116000AV0034,,,1000,,1005,,1006,,1007,,1031,,10,4,Local industriel. commercial ou assimilé,279,0,,,,,,2.257978,48.841485
2015-1168478,2015-01-23,000001,Vente,2400000,31,,RUE DU GAL DELESTRAINT,4029,75016,75116,Paris 16e Arrondissement,75,,,75116000AV0034,,,1001,,1002,,1003,,1004,,,,4,4,Local industriel. commercial ou assimilé,54,0,,,,,,2.257978,48.841485
2015-1168478,2015-01-23,000001,Vente,2400000,31,,RUE DU GAL DELESTRAINT,4029,75016,75116,Paris 16e Arrondissement,75,,,75116000AV0034,,,1001,,1002,,1003,,1004,,1047,,5,4,Local industriel. commercial ou assimilé,8,0,,,,,,2.257978,48.841485
2015-1168479,2015-01-15,000001,Vente,1300000,18,,BD FLANDRIN,3663,75016,75116,Paris 16e Arrondissement,75,,,75116000EC0035,,,148,,152,,161,,162,,,,4,2,Appartement,148,5,,,,,,2.272982,48.86588
2015-1168479,2015-01-15,000001,Vente,1300000,18,,BD FLANDRIN,3663,75016,75116,Paris 16e Arrondissement,75,,,75116000EC0035,,,136,,,,,,,,,,1,3,Dépendance,,0,,,,,,2.272982,48.86588
2015-1168479,2015-01-15,000001,Vente,1300000,18,,BD FLANDRIN,3663,75016,75116,Paris 16e Arrondissement,75,,,75116000EC0035,,,134,,,,,,,,,,1,3,Dépendance,,0,,,,,,2.272982,48.86588
2015-1168480,2015-01-29,000001,Vente,8210000,46,,AV DES TILLEULS,9312,75016,75116,Paris 16e Arrondissement,75,,,75116000BR0063,,,,,,,,,,,,,0,1,Maison,550,10,S,sols,,,285,2.263708,48.851972
2015-1168481,2015-01-14,000001,Vente,920000,15,B,BD JULES SANDEAU,5101,75016,75116,Paris 16e Arrondissement,75,,,75116000DG0023,,,69,,,,,,,,,,1,3,Dépendance,,0,,,,,,2.2726,48.861796
2015-1168481,2015-01-14,000001,Vente,920000,15,B,BD JULES SANDEAU,5101,75016,75116,Paris 16e Arrondissement,75,,,75116000DG0023,,,52,,69,,,,,,,,2,2,Appartement,130,6,,,,,,2.2726,48.861796
2015-1168482,2015-01-09,000001,Vente,50000,53,,RUE DE PASSY,7087,75016,75116,Paris 16e Arrondissement,75,,,75116000CI0122,,,17003,,,,,,,,,,1,3,Dépendance,,0,,,,,,2.279559,48.857071
2015-1168483,2015-01-14,000001,Vente,445000,38,,AV BUGEAUD,1373,75016,75116,Paris 16e Arrondissement,75,,,75116000ES0003,,,287,60.02,,,,,,,,,1,2,Appartement,61,1,,,,,,2.28029,48.871156
2015-1168484,2015-01-19,000001,Vente,435000,4,,SQ MIGNOT,6351,75016,75116,Paris 16e Arrondissement,75,,,75116000DT0035,,,118,,,,,,,,,,1,3,Dépendance,,0,,,,,,2.28316,48.862455
2015-1168484,2015-01-19,000001,Vente,435000,5,,SQ MIGNOT,6351,75016,75116,Paris 16e Arrondissement,75,,,75116000DT0036,,,5,,6,,,,,,,,2,2,Appartement,80,2,,,,,,2.282508,48.86232
2015-1168485,2015-01-16,000001,Vente,120000,39,B,RUE MOLITOR,6411,75016,75116,Paris 16e Arrondissement,75,,,75116000AO0003,,,61,,,,,,,,,,1,2,Appartement,38,1,,,,,,2.260636,48.845026
2015-1168486,2015-01-09,000001,Vente,972500,140,,BD EXELMANS,3465,75016,75116,Paris 16e Arrondissement,75,,,75116000AZ0022,,,14,,32,,,,,,,,2,2,Appartement,100,4,,,,,,2.259691,48.847399
2015-1168486,2015-01-09,000001,Vente,972500,140,,BD EXELMANS,3465,75016,75116,Paris 16e Arrondissement,75,,,75116000AZ0022,,,22,,,,,,,,,,1,3,Dépendance,,0,,,,,,2.259691,48.847399
2015-1168487,2015-01-12,000001,Vente,232750,38,,AV BUGEAUD,1373,75016,75116,Paris 16e Arrondissement,75,,,75116000ES0003,,,361,30.05,,,,,,,,,1,2,Appartement,29,1,,,,,,2.28029,48.871156
2015-1168488,2015-01-15,000001,Vente,3954898.94,71,B,RUE DE L ASSOMPTION,0503,75016,75116,Paris 16e Arrondissement,75,,,75116000BT0031,,,,,,,,,,,,,0,1,Maison,232,8,S,sols,,,575,2.267423,48.854684
2015-1168489,2015-01-09,000001,Vente,64000,125,,RUE MICHEL ANGE,6324,75016,75116,Paris 16e Arrondissement,75,,,75116000AS0024,,,81,,,,,,,,,,1,2,Appartement,10,1,,,,,,2.258268,48.839402
2015-1168490,2015-01-12,000001,Vente,475000,197,B,AV DE VERSAILLES,9706,75016,75116,Paris 16e Arrondissement,75,,,75116000AD0030,,,102,,103,,125,,127,,,,4,4,Local industriel. commercial ou assimilé,100,0,,,,,,2.26069,48.838697
2015-1168491,2015-01-09,000001,Vente,75000,41,,AV MAL LYAUTEY,6049,75016,75116,Paris 16e Arrondissement,75,,,75116000BP0001,,,583,,,,,,,,,,1,2,Appartement,11,1,,,,,,2.258697,48.848963
2015-1168492,2015-01-21,000001,Vente,155000,49,,RUE CHARDON LAGACHE,1790,75016,75116,Paris 16e Arrondissement,75,,,75116000AI0024,,,30,16.58,,,,,,,,,1,2,Appartement,20,1,,,,,,2.265123,48.843026
2015-1168493,2015-01-15,000001,Vente,580000,63,,RUE JEAN DE LA FONTAINE,5249,75016,75116,Paris 16e Arrondissement,75,,,75116000BX0021,,,3,71.22,,,,,,,,,1,2,Appartement,71,4,,,,,,2.26785,48.849412
2015-1168493,2015-01-15,000001,Vente,580000,63,,RUE JEAN DE LA FONTAINE,5249,75016,75116,Paris 16e Arrondissement,75,,,75116000BX0021,,,3,71.22,,,,,,,,,1,3,Dépendance,,0,,,,,,2.26785,48.849412
2015-1168494,2015-01-06,000001,Vente,680000,2,,RUE PAUL DUPUY,7153,75016,75116,Paris 16e Arrondissement,75,,,75116000BZ0092,,,52,84.94,,,,,,,,,1,2,Appartement,86,3,,,,,,2.273697,48.849844
2015-1168495,2015-01-08,000001,Vente,446239.12,127,,RUE DU RANELAGH,8029,75016,75116,Paris 16e Arrondissement,75,,,75116000CP0018,,,82,,,,,,,,,,1,2,Appartement,50,3,,,,,,2.267371,48.855795
2015-1168496,2015-01-29,000001,Vente en l'état futur d'achèvement,1088460,46,,RUE DE LA POMPE,7587,75016,75116,Paris 16e Arrondissement,75,,,75116000DL0004,,,1125,,,,,,,,,,1,3,Dépendance,,0,,,,,,2.276278,48.86156
2015-1168496,2015-01-29,000001,Vente en l'état futur d'achèvement,1088460,46,,RUE DE LA POMPE,7587,75016,75116,Paris 16e Arrondissement,75,,,75116000DL0004,,,1006,,1051,,,,,,,,2,2,Appartement,78,3,,,,,,2.276278,48.86156
2015-1168497,2015-01-20,000001,Vente,47000,67,,BD SUCHET,9107,75016,75116,Paris 16e Arrondissement,75,,,75116000BO0010,,,181,,,,,,,,,,1,3,Dépendance,,0,,,,,,2.26153,48.851383
2015-1168498,2015-01-30,000001,Vente,885300,1,,RUE LARGILLIERE,5352,75016,75116,Paris 16e Arrondissement,75,,,75116000CM0011,,,41,116.55,43,,,,,,,,2,2,Appartement,130,3,,,,,,2.272539,48.857283
2015-1168498,2015-01-30,000001,Vente,885300,1,,RUE LARGILLIERE,5352,75016,75116,Paris 16e Arrondissement,75,,,75116000CM0011,,,41,116.55,43,,,,,,,,2,3,Dépendance,,0,,,,,,2.272539,48.857283
2015-1168499,2015-01-12,000001,Vente,470000,48,,RUE MICHEL ANGE,6324,75016,75116,Paris 16e Arrondissement,75,,,75116000AO0006,,,265,58.01,317,,,,,,,,2,2,Appartement,59,3,,,,,,2.260866,48.844574
2015-1168500,2015-01-14,000001,Vente,1015300,8,,SQ HENRY PATE,4608,75016,75116,Paris 16e Arrondissement,75,,,75116000BY0014,,,38,114.9,63,,,,,,,,2,2,Appartement,107,3,,,,,,2.272171,48.848814
2015-1168501,2015-01-14,000001,Vente,815000,12,,RUE DU BOUQUET DE LONGCHAMP,1180,75016,75116,Paris 16e Arrondissement,75,,,75116000FN0007,,,1,,,,,,,,,,1,4,Local industriel. commercial ou assimilé,117,0,,,,,,2.290778,48.865616
2015-1168501,2015-01-14,000001,Vente,815000,12,,RUE DU BOUQUET DE LONGCHAMP,1180,75016,75116,Paris 16e Arrondissement,75,,,75116000FN0007,,,28,,,,,,,,,,1,2,Appartement,143,5,,,,,,2.290778,48.865616
2015-1168502,2015-01-09,000001,Vente,1050000,1,,SQ MALHERBE,5960,75016,75116,Paris 16e Arrondissement,75,,,75116000BP0001,,,1001,65.03,985,,,,,,,,2,2,Appartement,71,3,,,,,,2.258697,48.848963
2015-1168503,2015-01-23,000001,Vente,308980,2,B,AV MILLERET DE BROU,6362,75016,75116,Paris 16e Arrondissement,75,,,75116000BU0008,,,113,31.22,,,,,,,,,1,2,Appartement,33,1,,,,,,2.271866,48.85347
2015-1168504,2015-01-16,000001,Vente,780000,6,,RUE RAFFAELLI,7995,75016,75116,Paris 16e Arrondissement,75,,,75116000AY0005,,,108,101.15,121,,,,,,,,2,2,Appartement,100,5,,,,,,2.25605,48.843611
2015-1168504,2015-01-16,000001,Vente,780000,48,,BD MURAT,6639,75016,75116,Paris 16e Arrondissement,75,,,75116000AY0005,,,204,,,,,,,,,,1,3,Dépendance,,0,,,,,,2.25605,48.843611
2015-1168505,2015-01-13,000001,Vente,180000,73,,AV DE VERSAILLES,9706,75016,75116,Paris 16e Arrondissement,75,,,75116000AK0018,,,7,26.5,,,,,,,,,1,2,Appartement,28,1,,,,,,2.273433,48.846584
2015-1168506,2015-01-24,000001,Vente,280000,33,,AV DE VERSAILLES,9706,75016,75116,Paris 16e Arrondissement,75,,,75116000CA0035,,,44,47.95,8,,,,,,,,2,2,Appartement,62,2,,,,,,2.276096,48.849323
2015-1168507,2015-01-15,000001,Vente,676000,64,,RUE DES BELLES FEUILLES,0830,75016,75116,Paris 16e Arrondissement,75,,,75116000DY0030,,,150,,73,116.56,,,,,,,2,2,Appartement,117,5,,,,,,2.280305,48.869367
2015-1168508,2015-01-08,000001,Vente,260000,26,,RUE DE L ANNONCIATION,0362,75016,75116,Paris 16e Arrondissement,75,,,75116000CI0034,,,136,27.56,,,,,,,,,1,2,Appartement,44,0,,,,,,2.27923,48.857077
2015-1168508,2015-01-08,000001,Vente,260000,26,,RUE DE L ANNONCIATION,0362,75016,75116,Paris 16e Arrondissement,75,,,75116000CI0034,,,114,,,,,,,,,,1,2,Appartement,25,1,,,,,,2.27923,48.857077
2015-1168509,2015-01-09,000001,Vente,122500,3,,AV THEODORE ROUSSEAU,9249,75016,75116,Paris 16e Arrondissement,75,,,75116000BT0085,,,19D,11.82,,,,,,,,,1,2,Appartement,12,1,,,,,,2.26976,48.854117
2015-1168510,2015-02-02,000001,Vente,1001100,35,,RUE DE LUBECK,5832,75016,75116,Paris 16e Arrondissement,75,,,75116000FQ0004,,,111,,207,80.24,,,,,,,2,2,Appartement,80,4,,,,,,2.291153,48.864421
2015-1168511,2015-01-16,000001,Vente,713150,95,,BD EXELMANS,3465,75016,75116,Paris 16e Arrondissement,75,,,75116000AY0033,,,31,94.42,33,,,,,,,,2,2,Appartement,89,4,,,,,,2.258088,48.844578
2015-1168512,2015-01-20,000001,Vente,600000,62,,BD FLANDRIN,3663,75016,75116,Paris 16e Arrondissement,75,,,75116000ED0002,,,2,98.37,,,,,,,,,1,2,Appartement,98,3,,,,,,2.27423,48.868256
2015-1168513,2015-01-30,000001,Vente,557851,67,,BD SUCHET,9107,75016,75116,Paris 16e Arrondissement,75,,,75116000BO0010,,,42,60.42,6,,,,,,,,2,2,Appartement,65,3,,,,,,2.26153,48.851383
2015-1168514,2015-01-12,000001,Vente,2500000,43,,AV MAL FAYOLLE,6041,75016,75116,Paris 16e Arrondissement,75,,,75116000EG0002,,,73,,8,23.45,,,,,,,2,3,Dépendance,,0,,,,,,2.27154,48.868129
2015-1168514,2015-01-12,000001,Vente,2500000,43,,AV MAL FAYOLLE,6041,75016,75116,Paris 16e Arrondissement,75,,,75116000EG0002,,,1,303.87,72,,,,,,,,2,2,Appartement,252,8,,,,,,2.27154,48.868129
2015-1168514,2015-01-12,000001,Vente,2500000,43,,AV MAL FAYOLLE,6041,75016,75116,Paris 16e Arrondissement,75,,,75116000EG0002,,,30,,,,,,,,,,1,3,Dépendance,,0,,,,,,2.27154,48.868129
2015-1168514,2015-01-12,000001,Vente,2500000,43,,AV MAL FAYOLLE,6041,75016,75116,Paris 16e Arrondissement,75,,,75116000EG0002,,,13,,,,,,,,,,1,3,Dépendance,,0,,,,,,2.27154,48.868129
2015-1168515,2015-01-27,000001,Vente,1050000,8,,AV FOCH,3696,75016,75116,Paris 16e Arrondissement,75,,,75116000FB0017,,,156,,,,,,,,,,1,3,Dépendance,,0,,,,,,2.291983,48.874004
2015-1168515,2015-01-27,000001,Vente,1050000,8,,AV FOCH,3696,75016,75116,Paris 16e Arrondissement,75,,,75116000FB0017,,,106,,107,96.11,146,,,,,,3,2,Appartement,112,4,,,,,,2.291983,48.874004
2015-1168516,2015-01-30,000001,Vente,800000,39,,RUE DE CHAILLOT,1680,75016,75116,Paris 16e Arrondissement,75,,,75116000FO0027,,,5,92.16,,,,,,,,,1,2,Appartement,96,4,,,,,,2.297741,48.867968
2015-1168517,2015-01-30,000001,Vente,88925,21,,RUE BENJAMIN FRANKLIN,3822,75016,75116,Paris 16e Arrondissement,75,,,75116000DS0029,,,115,10.53,,,,,,,,,1,3,Dépendance,,0,,,,,,2.285357,48.860312
2015-1168518,2015-01-15,000001,Vente,950000,9,,RUE GOETHE,4224,75016,75116,Paris 16e Arrondissement,75,,,75116000FP0051,,,16,,5,106.61,,,,,,,2,2,Appartement,106,5,,,,,,2.298323,48.865977
2015-1168519,2015-01-13,000001,Vente,252000,6,,RUE GUSTAVE COURBET,4406,75016,75116,Paris 16e Arrondissement,75,,,75116000DW0029,,,11,36.01,34,,,,,,,,2,2,Appartement,36,2,,,,,,2.281997,48.866278
2015-1168520,2015-01-21,000001,Vente,416500,10,,RUE JEAN BOLOGNE,4863,75016,75116,Paris 16e Arrondissement,75,,,75116000CH0028,,,14,,31,43.36,,,,,,,2,2,Appartement,48,2,,,,,,2.280443,48.857104
2015-1168521,2015-01-12,000001,Vente,50000,25,,BD SUCHET,9107,75016,75116,Paris 16e Arrondissement,75,,,75116000CQ0021,,,7,,,,,,,,,,1,3,Dépendance,,0,,,,,,2.26599,48.858584
2015-1168522,2015-01-29,000001,Vente,60000,46,,BD SUCHET,9107,75016,75116,Paris 16e Arrondissement,75,,,75116000BM0011,,,39,,,,,,,,,,1,3,Dépendance,,0,,,,,,2.26374,48.856654
2015-1168523,2015-01-19,000001,Vente,680000,31,,BD LANNES,5327,75016,75116,Paris 16e Arrondissement,75,,,75116000EG0016,,,28,77.88,29,,,,,,,,2,2,Appartement,80,3,,,,,,2.27249,48.867109
2015-1168524,2015-01-19,000001,Vente,940000,9,,RUE VICTORIEN SARDOU,9767,75016,75116,Paris 16e Arrondissement,75,,,75116000AI0070,,,79,,,,,,,,,,1,3,Dépendance,,0,,,,,,2.267312,48.842899
2015-1168524,2015-01-19,000001,Vente,940000,9,,RUE VICTORIEN SARDOU,9767,75016,75116,Paris 16e Arrondissement,75,,,75116000AI0070,,,48,107.19,,,,,,,,,1,2,Appartement,100,4,,,,,,2.267312,48.842899
2015-1168525,2015-01-27,000001,Vente,425000,18,,AV DE VERSAILLES,9706,75016,75116,Paris 16e Arrondissement,75,,,75116000CB0016,,,84,,,,,,,,,,1,3,Dépendance,,0,,,,,,2.276484,48.850723
2015-1168525,2015-01-27,000001,Vente,425000,18,,AV DE VERSAILLES,9706,75016,75116,Paris 16e Arrondissement,75,,,75116000CB0016,,,22,52.21,,,,,,,,,1,2,Appartement,52,2,,,,,,2.276484,48.850723
2015-1168526,2015-01-19,000001,Vente,1015000,29,,AV DE LAMBALLE,5294,75016,75116,Paris 16e Arrondissement,75,,,75116000CD0028,,,21,112.34,56,,,,,,,,2,2,Appartement,99,3,,,,,,2.278905,48.854291
2015-1168527,2015-01-30,000001,Vente,730000,35,,RUE DE LONGCHAMP,5744,75016,75116,Paris 16e Arrondissement,75,,,75116000FR0034,,,25,,38,90.09,39,,,,,,3,2,Appartement,82,4,,,,,,2.28941,48.864865
2015-1168528,2015-01-16,000001,Vente,44000,85,,RUE CHARDON LAGACHE,1790,75016,75116,Paris 16e Arrondissement,75,,,75116000AR0045,,,299,,,,,,,,,,1,3,Dépendance,,0,,,,,,2.263799,48.840529
2015-1168529,2015-01-15,000001,Vente,1310000,8,,RUE MALLET STEVENS,5964,75016,75116,Paris 16e Arrondissement,75,,,75116000BT0034,,,37,,39,,,,,,,,2,2,Appartement,117,4,,,,,,2.266437,48.854926
2015-1168529,2015-01-15,000001,Vente,1310000,8,,RUE MALLET STEVENS,5964,75016,75116,Paris 16e Arrondissement,75,,,75116000BT0034,,,38,,,,,,,,,,1,3,Dépendance,,0,,,,,,2.266437,48.854926
2015-1168530,2015-01-26,000001,Vente,242500,10,,RUE DU BOUQUET DE LONGCHAMP,1180,75016,75116,Paris 16e Arrondissement,75,,,75116000FN0008,,,19,27.26,,,,,,,,,1,2,Appartement,28,1,,,,,,2.290746,48.865432
2015-1168531,2015-01-15,000001,Vente,415000,41,,RUE MOLITOR,6411,75016,75116,Paris 16e Arrondissement,75,,,75116000AO0003,,,294,,91,59.64,,,,,,,2,2,Appartement,59,1,,,,,,2.260636,48.845026
2015-1168532,2015-01-19,000001,Vente,430900,80,,RUE JEAN DE LA FONTAINE,5249,75016,75116,Paris 16e Arrondissement,75,,,75116000BW0080,,,133,,81,42.46,,,,,,,2,2,Appartement,42,2,,,,,,2.269032,48.850245
2015-1168533,2015-01-16,000001,Vente,1051408,4,,RUE CHALGRIN,1690,75016,75116,Paris 16e Arrondissement,75,,,75116000FB0041,,,64,,,,,,,,,,1,2,Appartement,123,5,,,,,,2.290148,48.874223
2015-1168533,2015-01-16,000001,Vente,1051408,4,,RUE CHALGRIN,1690,75016,75116,Paris 16e Arrondissement,75,,,75116000FB0041,,,28,120.1,,,,,,,,,1,2,Appartement,134,5,,,,,,2.290148,48.874223
2015-1168534,2015-01-23,000001,Vente,37000,91,,RUE DE LA POMPE,7587,75016,75116,Paris 16e Arrondissement,75,,,75116000EB0013,,,715,,,,,,,,,,1,3,Dépendance,,0,,,,,,2.277659,48.865052
2015-1168535,2015-01-26,000001,Vente,95000,61,,BD SUCHET,9107,75016,75116,Paris 16e Arrondissement,75,,,75116000BO0005,,,23,9.88,,,,,,,,,1,3,Dépendance,,0,,,,,,2.261813,48.851819
2015-1168536,2015-01-22,000001,Vente,1073000,94,,AV PAUL DOUMER,7149,75016,75116,Paris 16e Arrondissement,75,,,75116000DN0074,,,2318,114.8,2325,,2327,,,,,,3,2,Appartement,117,4,,,,,,2.275532,48.859096
2015-1168536,2015-01-22,000001,Vente,1073000,8,,RUE DE LA POMPE,7587,75016,75116,Paris 16e Arrondissement,75,,,75116000DN0074,,,3016,,,,,,,,,,1,3,Dépendance,,0,,,,,,2.275532,48.859096
2015-1168537,2015-01-20,000001,Vente,19000000,24,,RUE GREUZE,4330,75016,75116,Paris 16e Arrondissement,75,,,75116000DU0055,,,,,,,,,,,,,0,1,Maison,719,10,S,sols,,,929,2.283751,48.864372
2015-1168538,2015-01-30,000001,Vente,540000,40,,RUE ERLANGER,3320,75016,75116,Paris 16e Arrondissement,75,,,75116000AO0002,,,1316,56.08,1323,,,,,,,,2,2,Appartement,55,2,,,,,,2.259506,48.844886
2015-1168539,2015-01-28,000001,Vente,2092500,22,,RUE GEORGES BIZET,4123,75016,75116,Paris 16e Arrondissement,75,,,75116000FO0019,,,100,,,,,,,,,,1,3,Dépendance,,0,,,,,,2.297233,48.867874
2015-1168539,2015-01-28,000001,Vente,2092500,24,,AV PIERRE 1ER SERBIE,7471,75016,75116,Paris 16e Arrondissement,75,,,75116000FP0035,,,21,,4,169.44,,,,,,,2,2,Appartement,166,7,,,,,,2.298642,48.866926
2015-1168540,2015-01-28,000001,Vente,70000,65,,AV MARCEAU,5997,75016,75116,Paris 16e Arrondissement,75,,,75116000FI0055,,,25,,,,,,,,,,1,3,Dépendance,,0,,,,,,2.297357,48.870202
2015-1168541,2015-01-13,000001,Vente,1200000,3,,BD SUCHET,9107,75016,75116,Paris 16e Arrondissement,75,,,75116000DE0018,,,109,140.4,142,,151,,,,,,3,2,Appartement,150,5,,,,,,2.267249,48.860673
2015-1168541,2015-01-13,000001,Vente,1200000,11,,BD SUCHET,9107,75016,75116,Paris 16e Arrondissement,75,,,75116000DE0021,,,196,,,,,,,,,,1,3,Dépendance,,0,,,,,,2.267344,48.859878
2015-1168542,2015-01-15,000001,Vente,635000,46,,RUE DE PASSY,7087,75016,75116,Paris 16e Arrondissement,75,,,75116000DO0123,,,5,32.98,,,,,,,,,1,2,Appartement,64,0,,,,,,2.27962,48.858058
2015-1168542,2015-01-15,000001,Vente,635000,46,,RUE DE PASSY,7087,75016,75116,Paris 16e Arrondissement,75,,,75116000DO0123,,,1,,22,,3,,,,,,3,4,Local industriel. commercial ou assimilé,48,0,,,,,,2.27962,48.858058
2015-1168543,2015-01-16,000001,Vente,477500,4,,RUE AGAR,0088,75016,75116,Paris 16e Arrondissement,75,,,75116000BZ0067,,,17,,,,,,,,,,1,2,Appartement,48,3,,,,,,2.273869,48.8515
2015-1168544,2015-01-21,000001,Vente,105000,21,,RUE DE LA FAISANDERIE,3487,75016,75116,Paris 16e Arrondissement,75,,,75116000DZ0009,,,76,,,,,,,,,,1,2,Appartement,7,1,,,,,,2.277446,48.870228
2015-1168544,2015-01-21,000001,Vente,105000,21,,RUE DE LA FAISANDERIE,3487,75016,75116,Paris 16e Arrondissement,75,,,75116000DZ0009,,,75,,,,,,,,,,1,3,Dépendance,,0,,,,,,2.277446,48.870228
2015-1168545,2015-01-20,000001,Vente,340000,8,,RUE NICOLO,6771,75016,75116,Paris 16e Arrondissement,75,,,75116000DO0075,,,36,37.89,47,,,,,,,,2,2,Appartement,38,2,,,,,,2.280843,48.858478
2015-1168546,2015-01-30,000001,Vente,580000,91,,BD MURAT,6639,75016,75116,Paris 16e Arrondissement,75,,,75116000AV0004,,,13,,3,86.25,,,,,,,2,2,Appartement,93,4,,,,,,2.256608,48.840644
2015-1168547,2015-01-20,000001,Vente,50000,5,,RUE LAURISTON,5401,75016,75116,Paris 16e Arrondissement,75,,,75116000FG0030,,,13,8.72,,,,,,,,,1,3,Dépendance,,0,,,,,,2.293024,48.872145
2015-1168548,2015-01-27,000001,Vente,231260,69,,AV KLEBER,5159,75016,75116,Paris 16e Arrondissement,75,,,75116000FL0084,,,12,,94,26.02,,,,,,,2,2,Appartement,27,2,,,,,,2.289653,48.865794
2015-1168549,2015-01-16,000001,Vente,1340000,6,,RUE DE FRANQUEVILLE,3828,75016,75116,Paris 16e Arrondissement,75,,,75116000DG0041,,,14,,8,163.5,,,,,,,2,2,Appartement,180,5,,,,,,2.272192,48.860406
2015-1168550,2015-01-30,000001,Vente,2650000,49,,BD SUCHET,9107,75016,75116,Paris 16e Arrondissement,75,,,75116000BN0003,,,14,227.81,,,,,,,,,1,3,Dépendance,,0,,,,,,2.263844,48.855508
2015-1168550,2015-01-30,000001,Vente,2650000,49,,BD SUCHET,9107,75016,75116,Paris 16e Arrondissement,75,,,75116000BN0003,,,16,,,,,,,,,,1,3,Dépendance,,0,,,,,,2.263844,48.855508
2015-1168550,2015-01-30,000001,Vente,2650000,49,,BD SUCHET,9107,75016,75116,Paris 16e Arrondissement,75,,,75116000BN0003,,,14,227.81,18,,19,,,,,,3,2,Appartement,245,4,,,,,,2.263844,48.855508
2015-1168550,2015-01-30,000001,Vente,2650000,49,,BD SUCHET,9107,75016,75116,Paris 16e Arrondissement,75,,,75116000BN0003,,,25,,,,,,,,,,1,3,Dépendance,,0,,,,,,2.263844,48.855508
2015-1168551,2015-01-30,000001,Vente,645000,55,,AV MOZART,6626,75016,75116,Paris 16e Arrondissement,75,,,75116000CL0004,,,30,,44,,45,,57,,,,4,2,Appartement,87,4,,,,,,2.269847,48.854774
2015-1168552,2015-01-29,000001,Vente,3225000,89,,AV HENRI MARTIN,4567,75016,75116,Paris 16e Arrondissement,75,,,75116000DI0007,,,48,,,,,,,,,,1,3,Dépendance,,0,,,,,,2.27387,48.863838
2015-1168552,2015-01-29,000001,Vente,3225000,89,,AV HENRI MARTIN,4567,75016,75116,Paris 16e Arrondissement,75,,,75116000DI0007,,,26,,27,,5,294.21,,,,,3,2,Appartement,317,7,,,,,,2.27387,48.863838
2015-1168553,2015-01-20,000001,Vente,267550,156,,AV VICTOR HUGO,9761,75016,75116,Paris 16e Arrondissement,75,,,75116000ED0100,,,60,,61,,62,,,,,,3,2,Appartement,22,1,,,,,,2.277644,48.866731
2015-1168554,2015-02-02,000001,Vente,1600000,5,B,RUE OCTAVE FEUILLET,6864,75016,75116,Paris 16e Arrondissement,75,,,75116000DG0046,,,53,114.85,91,,,,,,,,2,2,Appartement,115,4,,,,,,2.272656,48.860968
2015-1168554,2015-02-02,000001,Vente,1600000,2,,RUE ALBERIC MAGNARD,0112,75016,75116,Paris 16e Arrondissement,75,,,75116000DG0046,,,65,,,,,,,,,,1,3,Dépendance,,0,,,,,,2.272656,48.860968
2015-1168555,2015-01-27,000001,Vente,35000,22,,RUE NICOLO,6771,75016,75116,Paris 16e Arrondissement,75,,,75116000DO0026,,,172,,,,,,,,,,1,3,Dépendance,,0,,,,,,2.279918,48.859383
2015-1168556,2015-02-11,000001,Vente,50000,136,,BD SUCHET,9107,75016,75116,Paris 16e Arrondissement,75,,,75116000BP0001,,,2149,,,,,,,,,,1,3,Dépendance,,0,,,,,,2.258697,48.848963
2015-1168556,2015-02-11,000001,Vente,50000,136,,BD SUCHET,9107,75016,75116,Paris 16e Arrondissement,75,,,75116000BP0001,,,2150,9.9,,,,,,,,,1,3,Dépendance,,0,,,,,,2.258697,48.848963
2015-1168557,2015-01-30,000001,Vente,190000,9,,AV RAYMOND POINCARE,8059,75016,75116,Paris 16e Arrondissement,75,,,75116000DU0020,,,27,24.26,,,,,,,,,1,2,Appartement,23,1,,,,,,2.286329,48.864125
2015-1168558,2015-01-20,000001,Vente,825000,56,,RUE DE PASSY,7087,75016,75116,Paris 16e Arrondissement,75,,,75116000DO0130,,,11,98.51,,,,,,,,,1,2,Appartement,110,4,,,,,,2.278405,48.858201
2015-1168558,2015-01-20,000001,Vente,825000,56,,RUE DE PASSY,7087,75016,75116,Paris 16e Arrondissement,75,,,75116000DO0130,,,81,,,,,,,,,,1,3,Dépendance,,0,,,,,,2.278405,48.858201
2015-1168559,2015-02-04,000001,Vente,1498860,74,,RUE DE LA FAISANDERIE,3487,75016,75116,Paris 16e Arrondissement,75,,,75116000ED0034,,,15,,44,,45,172.94,,,,,3,2,Appartement,200,4,,,,,,2.274626,48.86739
2015-1168559,2015-02-04,000001,Vente,1498860,74,,RUE DE LA FAISANDERIE,3487,75016,75116,Paris 16e Arrondissement,75,,,75116000ED0034,,,56,8.4,,,,,,,,,1,3,Dépendance,,0,,,,,,2.274626,48.86739
2015-1168559,2015-02-04,000001,Vente,1498860,74,,RUE DE LA FAISANDERIE,3487,75016,75116,Paris 16e Arrondissement,75,,,75116000ED0034,,,20,9.26,,,,,,,,,1,3,Dépendance,,0,,,,,,2.274626,48.86739
2015-1168560,2015-01-28,000001,Vente,631000,54,,BD EXELMANS,3465,75016,75116,Paris 16e Arrondissement,75,,,75116000AQ0013,,,33,68.5,,,,,,,,,1,2,Appartement,72,3,,,,,,2.26261,48.842303
2015-1168560,2015-01-28,000001,Vente,631000,54,,BD EXELMANS,3465,75016,75116,Paris 16e Arrondissement,75,,,75116000AQ0013,,,53,,,,,,,,,,1,2,Appartement,128,6,,,,,,2.26261,48.842303
2015-1168561,2015-01-23,000001,Vente,35000,7,,RUE WILHEM,9966,75016,75116,Paris 16e Arrondissement,75,,,75116000AJ0015,,,159,,,,,,,,,,1,3,Dépendance,,0,,,,,,2.270776,48.844019
2015-1168562,2015-01-28,000001,Vente,80000,11,,AV DE LAMBALLE,5294,75016,75116,Paris 16e Arrondissement,75,,,75116000CE0022,,,117,,134,,,,,,,,2,3,Dépendance,,0,,,,,,2.280637,48.854306
2015-1168563,2015-01-21,000001,Vente,58000,23,,RUE SINGER,8989,75016,75116,Paris 16e Arrondissement,75,,,75116000CI0094,,,28,,,,,,,,,,1,2,Appartement,22,1,,,,,,2.276502,48.856243
2015-1168564,2015-01-19,000001,Vente,38000,1,,RUE DES BAUCHES,0722,75016,75116,Paris 16e Arrondissement,75,,,75116000CK0067,,,173,,,,,,,,,,1,3,Dépendance,,0,,,,,,2.274594,48.855322
2015-1168565,2015-01-20,000001,Vente,1675000,26,,RUE LALO,5283,75016,75116,Paris 16e Arrondissement,75,,,75116000EV0034,,,110,,122,183.88,,,,,,,2,2,Appartement,180,6,,,,,,2.279685,48.874521
2015-1168566,2015-01-27,000001,Vente,935000,22,,RUE PAUL VALERY,7186,75016,75116,Paris 16e Arrondissement,75,,,75116000FF0019,,,103,,165,102.81,,,,,,,2,2,Appartement,105,4,,,,,,2.289752,48.870825
2015-1168566,2015-01-27,000001,Vente,935000,22,,RUE PAUL VALERY,7186,75016,75116,Paris 16e Arrondissement,75,,,75116000FF0019,,,25,,,,,,,,,,1,3,Dépendance,,0,,,,,,2.289752,48.870825
2015-1168567,2015-01-28,000001,Vente,280000,5,,VLA DE LONGCHAMP,5745,75016,75116,Paris 16e Arrondissement,75,,,75116000FL0086,,,11,,,,,,,,,,1,2,Appartement,30,2,,,,,,2.289591,48.865531
2015-1168568,2015-02-09,000001,Vente,90000,2,,RUE DES MARRONNIERS,6118,75016,75116,Paris 16e Arrondissement,75,,,75116000CK0007,,,361,,,,,,,,,,1,3,Dépendance,,0,,,,,,2.27696,48.854768
2015-1168569,2015-01-17,000001,Vente,37000,11,,AV BUGEAUD,1373,75016,75116,Paris 16e Arrondissement,75,,,75116000DX0036,,,10,8.03,,,,,,,,,1,3,Dépendance,,0,,,,,,2.283164,48.869972
2015-1168570,2015-01-30,000001,Vente,440000,23,,BD SUCHET,9107,75016,75116,Paris 16e Arrondissement,75,,,75116000CQ0022,,,334,,489,54.04,,,,,,,2,2,Appartement,60,2,,,,,,,
2015-1168571,2015-02-05,000001,Vente,60000,79,,BD EXELMANS,3465,75016,75116,Paris 16e Arrondissement,75,,,75116000AY0060,,,131,42.34,94,,,,,,,,2,2,Appartement,42,2,,,,,,2.258948,48.843506
2015-1168572,2015-01-23,000001,Vente,1050000,5,,RUE GUICHARD,4380,75016,75116,Paris 16e Arrondissement,75,,,75116000DN0060,,,31,,8,97.09,,,,,,,2,2,Appartement,90,4,,,,,,2.276707,48.858551
2015-1168573,2015-01-21,000001,Vente,42500,57,,BD LANNES,5327,75016,75116,Paris 16e Arrondissement,75,,,75116000EC0003,,,29,,,,,,,,,,1,3,Dépendance,,0,,,,,,2.270839,48.865144
2015-1168574,2015-01-29,000001,Vente,425000,21,,RUE DE LA POMPE,7587,75016,75116,Paris 16e Arrondissement,75,,,75116000DM0014,,,123,,23,47.5,,,,,,,2,2,Appartement,50,2,,,,,,2.274722,48.860037
2015-1168575,2015-01-23,000001,Vente,800000,15,,RUE GUSTAVE ZEDE,4428,75016,75116,Paris 16e Arrondissement,75,,,75116000CK0056,,,1,,,,,,,,,,1,2,Appartement,100,5,,,,,,2.272359,48.855195
2015-1168576,2015-01-30,000001,Vente,350000,5,,AV THEOPHILE GAUTIER,9253,75016,75116,Paris 16e Arrondissement,75,,,75116000BZ0077,,,22,,9,44.57,,,,,,,2,2,Appartement,46,3,,,,,,2.275057,48.85084
2015-1168577,2015-01-28,000001,Vente,66000,1,,RUE DES BAUCHES,0722,75016,75116,Paris 16e Arrondissement,75,,,75116000CK0067,,,307,,,,,,,,,,1,3,Dépendance,,0,,,,,,2.274594,48.855322
2015-1168578,2015-01-23,000001,Vente,255712,3,,RUE CHAPU,1778,75016,75116,Paris 16e Arrondissement,75,,,75116000AG0005,,,3,34.68,,,,,,,,,1,2,Appartement,35,2,,,,,,2.265988,48.84092
2015-1168578,2015-01-23,000001,Vente,255712,3,,RUE CHAPU,1778,75016,75116,Paris 16e Arrondissement,75,,,75116000AG0005,,,37,,,,,,,,,,1,2,Appartement,30,2,,,,,,2.265988,48.84092
2015-1168579,2015-01-16,000001,Vente,428600,8,,RUE DES PATURES,7107,75016,75116,Paris 16e Arrondissement,75,,,75116000CA0059,,,12,56.06,32,,,,,,,,2,2,Appartement,56,2,,,,,,2.274681,48.849495
2015-1168580,2015-01-21,000001,Vente,260000,39,,BD SUCHET,9107,75016,75116,Paris 16e Arrondissement,75,,,75116000CP0003,,,82,47.55,,,,,,,,,1,4,Local industriel. commercial ou assimilé,,0,,,,,,2.264875,48.856447
2015-1168581,2015-01-28,000001,Vente,1307600,6,,RUE DE LA FAISANDERIE,3487,75016,75116,Paris 16e Arrondissement,75,,,75116000ER0005,,,157,,,,,,,,,,1,3,Dépendance,,0,,,,,,2.276901,48.870977
2015-1168581,2015-01-28,000001,Vente,1307600,94,,BD FLANDRIN,3663,75016,75116,Paris 16e Arrondissement,75,,,75116000ER0010,,,1008,123.49,1196,,,,,,,,2,2,Appartement,122,3,,,,,,2.276294,48.870637
2015-1168582,2015-01-27,000001,Vente,80000,27,,RUE DAVIOUD,2606,75016,75116,Paris 16e Arrondissement,75,,,75116000CL0029,,,124,37.01,,,,,,,,,1,2,Appartement,42,1,,,,,,2.271152,48.855035
2015-1168583,2015-01-27,000001,Vente,45000,8,,RUE BELLINI,0845,75016,75116,Paris 16e Arrondissement,75,,,75116000DK0062,,,123,,,,,,,,,,1,3,Dépendance,,0,,,,,,2.282161,48.861039
2015-1168584,2015-01-23,000001,Vente,275000,19,,AV PAUL DOUMER,7149,75016,75116,Paris 16e Arrondissement,75,,,75116000DS0012,,,1134,,,,,,,,,,1,3,Dépendance,,0,,,,,,2.284183,48.860985
2015-1168584,2015-01-23,000001,Vente,275000,19,,AV PAUL DOUMER,7149,75016,75116,Paris 16e Arrondissement,75,,,75116000DS0012,,,1064,29.56,,,,,,,,,1,2,Appartement,31,1,,,,,,2.284183,48.860985
2015-1168585,2015-01-23,000001,Vente,100000,8,,RUE ANTOINE ROUCHER,0386,75016,75116,Paris 16e Arrondissement,75,,,75116000AL0033,,,49,9.77,,,,,,,,,1,2,Appartement,14,1,,,,,,2.271259,48.847253
2015-1168586,2015-01-22,000001,Vente,5499000,2,,RUE NICOLO,6771,75016,75116,Paris 16e Arrondissement,75,,,75116000DO0079,,,2,44.8,,,,,,,,,1,2,Appartement,44,2,,,,,,2.280864,48.858103
2015-1168586,2015-01-22,000001,Vente,5499000,2,,RUE NICOLO,6771,75016,75116,Paris 16e Arrondissement,75,,,75116000DO0079,,,1,,6,,,,,,,,2,4,Local industriel. commercial ou assimilé,212,0,,,,,,2.280864,48.858103
2015-1168587,2015-02-03,000001,Vente,72000,31,,RUE DE L ASSOMPTION,0503,75016,75116,Paris 16e Arrondissement,75,,,75116000BT0085,,,7F,,,,,,,,,,1,3,Dépendance,,0,,,,,,2.26976,48.854117
2015-1168588,2015-01-29,000001,Vente,650000,50,,RUE DU RANELAGH,8029,75016,75116,Paris 16e Arrondissement,75,,,75116000CK0045,,,195,,63,60.88,,,,,,,2,2,Appartement,60,1,,,,,,2.274039,48.855067
2015-1168588,2015-01-29,000001,Vente,650000,50,,RUE DU RANELAGH,8029,75016,75116,Paris 16e Arrondissement,75,,,75116000CK0045,,,310,,,,,,,,,,1,3,Dépendance,,0,,,,,,2.274039,48.855067
2015-1168589,2015-02-09,000001,Vente,1700000,33,,RUE DE LUBECK,5832,75016,75116,Paris 16e Arrondissement,75,,,75116000FQ0006,,,15,115.02,,,,,,,,,1,2,Appartement,115,5,,,,,,2.291426,48.864566
2015-1168589,2015-02-09,000001,Vente,1700000,33,,RUE DE LUBECK,5832,75016,75116,Paris 16e Arrondissement,75,,,75116000FQ0006,,,27,,,,,,,,,,1,2,Appartement,46,3,,,,,,2.291426,48.864566
2015-1168589,2015-02-09,000001,Vente,1700000,33,,RUE DE LUBECK,5832,75016,75116,Paris 16e Arrondissement,75,,,75116000FQ0006,,,27,,,,,,,,,,1,2,Appartement,31,3,,,,,,2.291426,48.864566
2015-1168589,2015-02-09,000001,Vente,1700000,33,,RUE DE LUBECK,5832,75016,75116,Paris 16e Arrondissement,75,,,75116000FQ0006,,,6,50.02,,,,,,,,,1,2,Appartement,50,2,,,,,,2.291426,48.864566
2015-1168590,2015-01-23,000001,Vente,500000,2,,RUE DE LA FAISANDERIE,3487,75016,75116,Paris 16e Arrondissement,75,,,75116000ER0005,,,222,58.98,29,,,,,,,,2,2,Appartement,70,2,,,,,,2.276901,48.870977
2015-1168591,2015-02-16,000001,Vente,1028000,82,,RUE DE LA FAISANDERIE,3487,75016,75116,Paris 16e Arrondissement,75,,,75116000ED0033,,,110,,28,,,,,,,,2,2,Appartement,112,4,,,,,,2.274371,48.867182
2015-1168592,2015-02-17,000001,Vente,1,68,B,RUE SPONTINI,9059,75016,75116,Paris 16e Arrondissement,75,,,75116000ED0083,,,,,,,,,,,,,0,4,Local industriel. commercial ou assimilé,1326,0,S,sols,,,303,2.276125,48.866611
2015-1168592,2015-02-17,000001,Vente,1,68,B,RUE SPONTINI,9059,75016,75116,Paris 16e Arrondissement,75,,,75116000ED0083,,,,,,,,,,,,,0,4,Local industriel. commercial ou assimilé,,0,S,sols,,,303,2.276125,48.866611
2015-1168593,2015-01-26,000001,Vente,924350,37,,BD SUCHET,9107,75016,75116,Paris 16e Arrondissement,75,,,75116000CP0004,,,252,,50,82.35,,,,,,,2,2,Appartement,80,2,,,,,,2.264915,48.85664
2015-1168594,2015-01-29,000001,Vente,588500,59,,RUE CHARDON LAGACHE,1790,75016,75116,Paris 16e Arrondissement,75,,,75116000AQ0035,,,5,71.24,,,,,,,,,1,2,Appartement,73,3,,,,,,2.264949,48.842367
2015-1168595,2015-02-09,000001,Vente,843200,1,,RUE LARGILLIERE,5352,75016,75116,Paris 16e Arrondissement,75,,,75116000CM0011,,,3,82.22,,,,,,,,,1,2,Appartement,82,3,,,,,,2.272539,48.857283
2015-1168595,2015-02-09,000001,Vente,843200,1,,RUE LARGILLIERE,5352,75016,75116,Paris 16e Arrondissement,75,,,75116000CM0011,,,3,82.22,,,,,,,,,1,3,Dépendance,,0,,,,,,2.272539,48.857283
2015-1168596,2015-01-28,000001,Vente,22500,19,,RUE MIRABEAU,6381,75016,75116,Paris 16e Arrondissement,75,,,75116000AK0003,,,21,6.43,,,,,,,,,1,3,Dépendance,,0,,,,,,2.271131,48.846333
2015-1168597,2015-02-06,000001,Vente,241584,2,B,RUE HERRAN,4623,75016,75116,Paris 16e Arrondissement,75,,,75116000DV0018,,,2,25.36,21,,24,,,,,,3,2,Appartement,25,2,,,,,,2.281292,48.865049
2015-1168598,2015-01-23,000001,Vente,150000,125,,AV DE VERSAILLES,9706,75016,75116,Paris 16e Arrondissement,75,,,75116000AI0078,,,52,30.03,,,,,,,,,1,4,Local industriel. commercial ou assimilé,21,0,,,,,,2.269967,48.843018
2015-1168599,2015-02-09,000001,Vente,72000,40,,RUE SCHEFFER,8872,75016,75116,Paris 16e Arrondissement,75,,,75116000DT0026,,,10,9.44,,,,,,,,,1,3,Dépendance,,0,,,,,,2.281912,48.86243
2015-1168600,2015-02-12,000001,Vente,707000,63,,RUE JEAN DE LA FONTAINE,5249,75016,75116,Paris 16e Arrondissement,75,,,75116000BX0021,,,15,,17,,19,,,,,,3,2,Appartement,79,3,,,,,,2.26785,48.849412
2015-1168601,2015-02-18,000001,Vente,1200200,21,,RUE SPONTINI,9059,75016,75116,Paris 16e Arrondissement,75,,,75116000DZ0030,,,1,,2,,42,,,,,,3,2,Appartement,111,3,,,,,,2.278179,48.869278
2015-1168602,2015-02-06,000001,Vente,300000,19,,AV PAUL DOUMER,7149,75016,75116,Paris 16e Arrondissement,75,,,75116000DS0012,,,1136,,,,,,,,,,1,3,Dépendance,,0,,,,,,2.284183,48.860985
2015-1168602,2015-02-06,000001,Vente,300000,19,,AV PAUL DOUMER,7149,75016,75116,Paris 16e Arrondissement,75,,,75116000DS0012,,,1105,26.68,,,,,,,,,1,2,Appartement,31,1,,,,,,2.284183,48.860985
2015-1168602,2015-02-06,000001,Vente,300000,19,,AV PAUL DOUMER,7149,75016,75116,Paris 16e Arrondissement,75,,,75116000DS0012,,,1137,,,,,,,,,,1,3,Dépendance,,0,,,,,,2.284183,48.860985
2015-1168603,2015-02-09,000001,Vente,390000,18,,RUE DES BELLES FEUILLES,0830,75016,75116,Paris 16e Arrondissement,75,,,75116000DW0072,,,1037,,,,,,,,,,1,3,Dépendance,,0,,,,,,2.282701,48.866624
2015-1168603,2015-02-09,000001,Vente,390000,18,,RUE DES BELLES FEUILLES,0830,75016,75116,Paris 16e Arrondissement,75,,,75116000DW0072,,,1004,73.7,,,,,,,,,1,2,Appartement,72,3,,,,,,2.282701,48.866624
2015-1168604,2015-02-11,000001,Vente,305000,28,,RUE JEAN DE LA FONTAINE,5249,75016,75116,Paris 16e Arrondissement,75,,,75116000BU0044,,,4,30.61,,,,,,,,,1,2,Appartement,30,2,,,,,,2.273022,48.851878
2015-1168604,2015-02-11,000001,Vente,305000,28,,RUE JEAN DE LA FONTAINE,5249,75016,75116,Paris 16e Arrondissement,75,,,75116000BU0044,,,77,,,,,,,,,,1,3,Dépendance,,0,,,,,,2.273022,48.851878
2015-1168605,2015-01-30,000001,Vente,1367000,8,,RUE DE POMEREU,7583,75016,75116,Paris 16e Arrondissement,75,,,75116000EA0063,,,5,100.77,,,,,,,,,1,2,Appartement,90,4,,,,,,2.278376,48.867722
2015-1168606,2015-02-11,000001,Vente,575000,26,,RUE DE L YVETTE,9990,75016,75116,Paris 16e Arrondissement,75,,,75116000BT0012,,,199,,37,62.8,,,,,,,2,2,Appartement,62,2,,,,,,2.266684,48.853808
2015-1168606,2015-02-11,000001,Vente,575000,26,,RUE DE L YVETTE,9990,75016,75116,Paris 16e Arrondissement,75,,,75116000BT0012,,,145,,,,,,,,,,1,3,Dépendance,,0,,,,,,2.266684,48.853808
2015-1168607,2015-01-30,000001,Vente,400000,57,,RUE D AUTEUIL,0594,75016,75116,Paris 16e Arrondissement,75,,,75116000AN0033,,,184,,60,40.27,,,,,,,2,2,Appartement,43,2,,,,,,2.26303,48.847455
2015-1168608,2015-02-05,000001,Vente,2950000,47,,AV D IENA,4693,75016,75116,Paris 16e Arrondissement,75,,,75116000FJ0051,,,12,,14,,15,,5,,56,,9,2,Appartement,276,4,,,,,,2.295135,48.869589
2015-1168609,2015-01-30,000001,Vente,1251000,27,,RUE BENJAMIN FRANKLIN,3822,75016,75116,Paris 16e Arrondissement,75,,,75116000DS0038,,,22,,8,,9,,,,,,3,2,Appartement,130,4,,,,,,2.285861,48.860828
2015-1168610,2015-01-27,000001,Vente,326500,73,,RUE DES VIGNES,9799,75016,75116,Paris 16e Arrondissement,75,,,75116000CM0067,,,6,41.15,,,,,,,,,1,2,Appartement,41,2,,,,,,2.273437,48.856723
2015-1168611,2015-02-05,000001,Vente,57000,4,,RUE DE LA CURE,2491,75016,75116,Paris 16e Arrondissement,75,,,75116000BT0049,,,4,,,,,,,,,,1,3,Dépendance,,0,,,,,,2.268401,48.853718
2015-1168612,2015-02-09,000001,Vente,140000,17,,AV D EYLAU,3472,75016,75116,Paris 16e Arrondissement,75,,,75116000DU0035,,,22,,,,,,,,,,1,3,Dépendance,,0,,,,,,2.284564,48.864248
2015-1168612,2015-02-09,000001,Vente,140000,17,,AV D EYLAU,3472,75016,75116,Paris 16e Arrondissement,75,,,75116000DU0035,,,21,,,,,,,,,,1,3,Dépendance,,0,,,,,,2.284564,48.864248
2015-1168613,2015-02-03,000001,Vente,653000,37,,BD MURAT,6639,75016,75116,Paris 16e Arrondissement,75,,,75116000AY0036,,,202,,,,,,,,,,1,3,Dépendance,,0,,,,,,2.25791,48.844327
2015-1168613,2015-02-03,000001,Vente,653000,37,,BD MURAT,6639,75016,75116,Paris 16e Arrondissement,75,,,75116000AY0036,,,33,78.88,458,,,,,,,,2,2,Appartement,75,3,,,,,,2.25791,48.844327
2015-1168614,2015-02-17,000001,Vente,49500,75,,BD DE MONTMORENCY,6516,75016,75116,Paris 16e Arrondissement,75,,,75116000BQ0007,,,16,,,,,,,,,,1,3,Dépendance,,0,,,,,,2.261979,48.850073
2015-1168615,2015-01-29,000001,Vente,845000,56,,RUE BOULAINVILLIERS,1154,75016,75116,Paris 16e Arrondissement,75,,,75116000CI0109,,,52,,,,,,,,,,1,3,Dépendance,,0,,,,,,2.275365,48.857362
2015-1168615,2015-01-29,000001,Vente,845000,56,,RUE BOULAINVILLIERS,1154,75016,75116,Paris 16e Arrondissement,75,,,75116000CI0109,,,197,,264,89.38,,,,,,,2,2,Appartement,89,3,,,,,,2.275365,48.857362
2015-1168616,2015-02-06,000001,Vente,770000,1,,RUE BOSIO,1117,75016,75116,Paris 16e Arrondissement,75,,,75116000BQ0062,,,11,91.66,33,,,,,,,,2,2,Appartement,88,5,,,,,,2.265071,48.849075
2015-1168617,2015-02-11,000001,Vente,80000,16,,AV GEORGES MANDEL,4141,75016,75116,Paris 16e Arrondissement,75,,,75116000DU0071,,,29,,,,,,,,,,1,3,Dépendance,,0,,,,,,2.283892,48.863676
2015-1168618,2015-02-12,000001,Vente,478240,80,,AV DE VERSAILLES,9706,75016,75116,Paris 16e Arrondissement,75,,,75116000AK0010,,,6,70.12,,,,,,,,,1,2,Appartement,68,2,,,,,,2.271839,48.8461
2015-1168619,2015-02-10,000001,Vente,322000,35,,RUE LAURISTON,5401,75016,75116,Paris 16e Arrondissement,75,,,75116000FF0032,,,102,33.13,117,,,,,,,,2,2,Appartement,36,2,,,,,,2.291752,48.870601
2015-1168620,2015-02-10,000001,Vente,638000,120,,RUE LAURISTON,5401,75016,75116,Paris 16e Arrondissement,75,,,75116000DW0112,,,1178,,,,,,,,,,1,3,Dépendance,,0,,,,,,2.285024,48.865871
2015-1168620,2015-02-10,000001,Vente,638000,107,,RUE LAURISTON,5401,75016,75116,Paris 16e Arrondissement,75,,,75116000FL0016,,,20,54.15,,,,,,,,,1,2,Appartement,47,1,,,,,,2.287293,48.866585
2015-1168621,2015-02-17,000001,Vente,4100000,9,,RUE FRESNEL,3862,75016,75116,Paris 16e Arrondissement,75,,,75116000FT0017,,,10,238.75,13,,,,,,,,2,2,Appartement,244,6,,,,,,2.295098,48.863649
2015-1168621,2015-02-17,000001,Vente,4100000,9,,RUE FRESNEL,3862,75016,75116,Paris 16e Arrondissement,75,,,75116000FT0017,,,22,,,,,,,,,,1,3,Dépendance,,0,,,,,,2.295098,48.863649
2015-1168621,2015-02-17,000001,Vente,4100000,9,,RUE FRESNEL,3862,75016,75116,Paris 16e Arrondissement,75,,,75116000FT0017,,,30,,,,,,,,,,1,3,Dépendance,,0,,,,,,2.295098,48.863649
2015-1168621,2015-02-17,000001,Vente,4100000,9,,RUE FRESNEL,3862,75016,75116,Paris 16e Arrondissement,75,,,75116000FT0017,,,23,,,,,,,,,,1,3,Dépendance,,0,,,,,,2.295098,48.863649
2015-1168622,2015-02-11,000001,Vente,162000,20,,RUE JOUVENET,5042,75016,75116,Paris 16e Arrondissement,75,,,75116000AI0022,,,233,,318,,,,,,,,2,2,Appartement,20,1,,,,,,2.265624,48.84278
2015-1168623,2015-01-30,000001,Vente,1550000,7,,AV DE LA FRILLIERE,5256,75016,75116,Paris 16e Arrondissement,75,,,75116000AR0147,,,66,,,,,,,,,,1,3,Dépendance,,0,,,,,,2.260641,48.840648
2015-1168623,2015-01-30,000001,Vente,1550000,3,,AV DE LA FRILLIERE,5256,75016,75116,Paris 16e Arrondissement,75,,,75116000AR0150,,,,,,,,,,,,,0,1,Maison,217,5,S,sols,,,117,2.260781,48.841016
2015-1168624,2015-02-06,000001,Vente,100000,11,,RUE FRANCOIS MILLET,3803,75016,75116,Paris 16e Arrondissement,75,,,75116000BZ0030,,,19,,20,,,,,,,,2,3,Dépendance,,0,,,,,,2.272345,48.850773
2015-1168625,2015-01-30,000001,Vente,3125000,89,,AV HENRI MARTIN,4567,75016,75116,Paris 16e Arrondissement,75,,,75116000DI0007,,,16,,4,284.38,43,,44,,,,4,2,Appartement,285,7,,,,,,2.27387,48.863838
2015-1168625,2015-01-30,000001,Vente,3125000,89,,AV HENRI MARTIN,4567,75016,75116,Paris 16e Arrondissement,75,,,75116000DI0007,,,47,,,,,,,,,,1,3,Dépendance,,0,,,,,,2.27387,48.863838
2015-1168625,2015-01-30,000001,Vente,3125000,4,,AV RODIN,8301,75016,75116,Paris 16e Arrondissement,75,,,75116000DI0013,,,350,,,,,,,,,,1,3,Dépendance,,0,,,,,,2.274939,48.863436
2015-1168626,2015-01-28,000001,Vente,500000,93,,RUE BOILEAU,1058,75016,75116,Paris 16e Arrondissement,75,,,75116000AR0061,,,34,54.32,5,,,,,,,,2,2,Appartement,56,2,,,,,,2.262072,48.839869
2015-1168627,2015-02-04,000001,Vente,364902,40,,RUE CLAUDE TERRASSE,2084,75016,75116,Paris 16e Arrondissement,75,,,75116000AD0043,,,140,47.74,174,,,,,,,,2,2,Appartement,46,2,,,,,,2.260649,48.837985
2015-1168628,2015-02-03,000001,Vente,70000,27,,RUE DES VIGNES,9799,75016,75116,Paris 16e Arrondissement,75,,,75116000CK0006,,,104,,,,,,,,,,1,3,Dépendance,,0,,,,,,2.276403,48.855282
2015-1168629,2015-02-17,000001,Vente,26000,10,,RUE DU GAL DELESTRAINT,4029,75016,75116,Paris 16e Arrondissement,75,,,75116000AY0062,,,19,,,,,,,,,,1,3,Dépendance,,0,,,,,,2.258613,48.843163
2015-1168630,2015-01-29,000001,Vente,50000,2,,RUE PAUL DUPUY,7153,75016,75116,Paris 16e Arrondissement,75,,,75116000BZ0092,,,62,,,,,,,,,,1,3,Dépendance,,0,,,,,,2.273697,48.849844
2015-1168631,2015-01-30,000001,Vente,180000,45,,RUE VINEUSE,9860,75016,75116,Paris 16e Arrondissement,75,,,75116000DS0018,,,120,17.98,,,,,,,,,1,2,Appartement,18,1,,,,,,2.285763,48.861332
2015-1168632,2015-02-20,000001,Vente,1764000,8,,SQ ALBONI,0137,75016,75116,Paris 16e Arrondissement,75,,,75116000CG0013,,,5,186.73,,,,,,,,,1,3,Dépendance,,0,,,,,,2.286606,48.858435
2015-1168632,2015-02-20,000001,Vente,1764000,8,,SQ ALBONI,0137,75016,75116,Paris 16e Arrondissement,75,,,75116000CG0013,,,5,186.73,,,,,,,,,1,3,Dépendance,,0,,,,,,2.286606,48.858435
2015-1168632,2015-02-20,000001,Vente,1764000,8,,SQ ALBONI,0137,75016,75116,Paris 16e Arrondissement,75,,,75116000CG0013,,,5,186.73,,,,,,,,,1,2,Appartement,185,6,,,,,,2.286606,48.858435
2015-1168632,2015-02-20,000001,Vente,1764000,,,RUE DE L ALBONI,0136,75016,75116,Paris 16e Arrondissement,75,,,75116000CG0023,,,,,,,,,,,,,0,,,,,S,sols,,,2605,2.286601,48.857991
2015-1168633,2015-01-29,000001,Vente,3400000,104,,AV RAYMOND POINCARE,8059,75016,75116,Paris 16e Arrondissement,75,,,75116000FD0002,,,4,27.9,,,,,,,,,1,3,Dépendance,,0,,,,,,2.2854,48.87168
2015-1168633,2015-01-29,000001,Vente,3400000,104,,AV RAYMOND POINCARE,8059,75016,75116,Paris 16e Arrondissement,75,,,75116000FD0002,,,69,57.8,70,12.7,71,,,,,,3,2,Appartement,57,1,,,,,,2.2854,48.87168
2015-1168633,2015-01-29,000001,Vente,3400000,104,,AV RAYMOND POINCARE,8059,75016,75116,Paris 16e Arrondissement,75,,,75116000FD0002,,,25,12.5,41,,61,,,,,,3,2,Appartement,13,1,,,,,,2.2854,48.87168
2015-1168633,2015-01-29,000001,Vente,3400000,104,,AV RAYMOND POINCARE,8059,75016,75116,Paris 16e Arrondissement,75,,,75116000FD0002,,,70,12.7,,,,,,,,,1,3,Dépendance,,0,,,,,,2.2854,48.87168
2015-1168633,2015-01-29,000001,Vente,3400000,104,,AV RAYMOND POINCARE,8059,75016,75116,Paris 16e Arrondissement,75,,,75116000FD0002,,,5,37.2,,,,,,,,,1,2,Appartement,37,1,,,,,,2.2854,48.87168
2015-1168633,2015-01-29,000001,Vente,3400000,104,,AV RAYMOND POINCARE,8059,75016,75116,Paris 16e Arrondissement,75,,,75116000FD0002,,,41,,,,,,,,,,1,2,Appartement,19,1,,,,,,2.2854,48.87168
2015-1168633,2015-01-29,000001,Vente,3400000,104,,AV RAYMOND POINCARE,8059,75016,75116,Paris 16e Arrondissement,75,,,75116000FD0002,,,11,58,15,52.2,57,,,,,,3,2,Appartement,110,3,,,,,,2.2854,48.87168
2015-1168633,2015-01-29,000001,Vente,3400000,104,,AV RAYMOND POINCARE,8059,75016,75116,Paris 16e Arrondissement,75,,,75116000FD0002,,,57,,,,,,,,,,1,2,Appartement,13,1,,,,,,2.2854,48.87168
2015-1168634,2015-02-10,000001,Vente,885000,4,,RUE DE TRAKTIR,9415,75016,75116,Paris 16e Arrondissement,75,,,75116000FB0036,,,25,79.33,27,,,,,,,,2,2,Appartement,66,2,,,,,,2.291752,48.872864
2015-1168635,2015-01-27,000001,Vente,1710000,53,,RUE DE LA TOUR,9362,75016,75116,Paris 16e Arrondissement,75,,,75116000DL0080,,,1,,5,,56,,66,,,,4,2,Appartement,142,5,,,,,,2.279857,48.86066
2015-1168635,2015-01-27,000001,Vente,1710000,53,,RUE DE LA TOUR,9362,75016,75116,Paris 16e Arrondissement,75,,,75116000DL0080,,,46,,,,,,,,,,1,3,Dépendance,,0,,,,,,2.279857,48.86066
2015-1168635,2015-01-27,000001,Vente,1710000,53,,RUE DE LA TOUR,9362,75016,75116,Paris 16e Arrondissement,75,,,75116000DL0080,,,45,,,,,,,,,,1,3,Dépendance,,0,,,,,,2.279857,48.86066
2015-1168636,2015-01-28,000001,Vente,240000,19,,AV PAUL DOUMER,7149,75016,75116,Paris 16e Arrondissement,75,,,75116000DS0012,,,1062,29.68,,,,,,,,,1,2,Appartement,31,1,,,,,,2.284183,48.860985
2015-1168637,2015-01-27,000001,Vente,67500,17,,AV RAYMOND POINCARE,8059,75016,75116,Paris 16e Arrondissement,75,,,75116000DU0013,,,270,,,,,,,,,,1,3,Dépendance,,0,,,,,,2.286047,48.864784
2015-1168638,2015-02-04,000001,Vente,750000,33,,RUE MOLITOR,6411,75016,75116,Paris 16e Arrondissement,75,,,75116000AP0019,,,12,87.1,21,,,,,,,,2,2,Appartement,86,4,,,,,,2.262196,48.845015
2015-1168639,2015-02-06,000001,Vente,735000,115,,RUE DE LA POMPE,7587,75016,75116,Paris 16e Arrondissement,75,,,75116000EB0045,,,16,71.25,45,,,,,,,,2,2,Appartement,78,2,,,,,,2.27859,48.865711
2015-1168640,2015-02-02,000001,Vente,3000000,171,,AV VICTOR HUGO,9761,75016,75116,Paris 16e Arrondissement,75,,,75116000EB0021,,,10,,22,,26,,9,,,,4,2,Appartement,300,7,,,,,,2.277558,48.865972
2015-1168641,2015-01-30,000001,Vente,1725000,2,,AV EMILE BERGERAT,3209,75016,75116,Paris 16e Arrondissement,75,,,75116000BU0001,,,13,,38,,,,,,,,2,2,Appartement,180,5,,,,,,2.271384,48.852985
2015-1168642,2015-02-11,000001,Vente,494000,190,,AV VICTOR HUGO,9761,75016,75116,Paris 16e Arrondissement,75,,,75116000EC0070,,,22,73.75,5,,,,,,,,2,2,Appartement,75,2,,,,,,2.274259,48.865309
2015-1168643,2015-02-16,000001,Vente,50000,48,,RUE MOLITOR,6411,75016,75116,Paris 16e Arrondissement,75,,,75116000AZ0070,,,16,,,,,,,,,,1,3,Dépendance,,0,,,,,,2.259581,48.845558
2015-1168644,2015-01-30,000001,Vente,665000,51,,RUE DES BELLES FEUILLES,0830,75016,75116,Paris 16e Arrondissement,75,,,75116000EA0047,,,147,,66,,,,,,,,2,2,Appartement,74,3,,,,,,2.279946,48.868222
2015-1168645,2015-01-30,000001,Vente,530000,17,,BD EXELMANS,3465,75016,75116,Paris 16e Arrondissement,75,,,75116000AG0071,,,24,,7,,,,,,,,2,2,Appartement,66,3,,,,,,2.265518,48.840197
2015-1168646,2015-01-08,000001,Vente,510000,15,,RUE DE REMUSAT,8122,75016,75116,Paris 16e Arrondissement,75,,,75116000AL0025,,,179,,73,,,,,,,,2,2,Appartement,65,3,,,,,,2.271836,48.847485
2015-1168647,2015-02-06,000001,Vente,255500,2,B,SQ HENRY PATE,4608,75016,75116,Paris 16e Arrondissement,75,,,75116000BY0010,,,47,34.01,6,,,,,,,,2,2,Appartement,26,1,,,,,,2.272963,48.848585
2015-1168648,2015-02-05,000001,Vente,2400000,66,,RUE SPONTINI,9059,75016,75116,Paris 16e Arrondissement,75,,,75116000ED0085,,,6,237.63,,,,,,,,,1,3,Dépendance,,0,,,,,,2.276166,48.866865
2015-1168648,2015-02-05,000001,Vente,2400000,66,,RUE SPONTINI,9059,75016,75116,Paris 16e Arrondissement,75,,,75116000ED0085,,,6,237.63,,,,,,,,,1,2,Appartement,213,6,,,,,,2.276166,48.866865
2015-1168648,2015-02-05,000001,Vente,2400000,66,,RUE SPONTINI,9059,75016,75116,Paris 16e Arrondissement,75,,,75116000ED0085,,,6,237.63,,,,,,,,,1,3,Dépendance,,0,,,,,,2.276166,48.866865
2015-1168648,2015-02-05,000001,Vente,2400000,62,,RUE SPONTINI,9059,75016,75116,Paris 16e Arrondissement,75,,,75116000ED0089,,,26,,,,,,,,,,1,3,Dépendance,,0,,,,,,2.276499,48.867256
2015-1168649,2015-02-11,000001,Vente,120000,17,,BD FLANDRIN,3663,75016,75116,Paris 16e Arrondissement,75,,,75116000EC0017,,,21,13.23,,,,,,,,,1,3,Dépendance,,0,,,,,,2.271666,48.865678
2015-1168650,2015-01-30,000001,Vente,40000,69,,RUE DE L ASSOMPTION,0503,75016,75116,Paris 16e Arrondissement,75,,,75116000BT0040,,,98,,,,,,,,,,1,3,Dépendance,,0,,,,,,2.267299,48.855034
2015-1168651,2015-02-19,000001,Vente,270000,41,,RUE DE PASSY,7087,75016,75116,Paris 16e Arrondissement,75,,,75116000CH0031,,,12,35.44,127,,,,,,,,2,2,Appartement,36,2,,,,,,2.280917,48.857547
2015-1168652,2015-02-19,000001,Vente,645000,7,,RUE DE LA TOUR,9362,75016,75116,Paris 16e Arrondissement,75,,,75116000DP0029,,,7,69.06,82,,,,,,,,2,2,Appartement,67,3,,,,,,2.283433,48.858685
2015-1168653,2015-02-17,000001,Vente,35000,29,,RUE BOIS LE VENT,1072,75016,75116,Paris 16e Arrondissement,75,,,75116000CM0033,,,36,,,,,,,,,,1,3,Dépendance,,0,,,,,,2.274016,48.857488
2015-1168654,2015-01-30,000001,Vente,700000,81,,BD DE MONTMORENCY,6516,75016,75116,Paris 16e Arrondissement,75,,,75116000BQ0004,,,169,69.02,59,,,,,,,,2,2,Appartement,74,3,,,,,,2.261529,48.84942
2015-1168654,2015-01-30,000001,Vente,700000,81,,BD DE MONTMORENCY,6516,75016,75116,Paris 16e Arrondissement,75,,,75116000BQ0004,,,11,,,,,,,,,,1,3,Dépendance,,0,,,,,,2.261529,48.84942
2015-1168655,2015-02-13,000001,Vente,45000,14,,RUE DES SABLONS,8450,75016,75116,Paris 16e Arrondissement,75,,,75116000DW0133,,,280,,,,,,,,,,1,3,Dépendance,,0,,,,,,2.283129,48.866623
2015-1168656,2015-02-02,000001,Vente,650000,17,,RUE FELICIEN DAVID,3545,75016,75116,Paris 16e Arrondissement,75,,,75116000CA0058,,,2,,35,,,,,,,,2,4,Local industriel. commercial ou assimilé,90,0,,,,,,2.274703,48.849572
2015-1168657,2015-02-18,000001,Vente,715000,33,,AV FOCH,3696,75016,75116,Paris 16e Arrondissement,75,,,75116000FD0013,,,208,,63,62.97,,,,,,,2,2,Appartement,65,2,,,,,,2.286709,48.871955
2015-1168657,2015-02-18,000001,Vente,715000,33,,AV FOCH,3696,75016,75116,Paris 16e Arrondissement,75,,,75116000FD0013,,,402,,,,,,,,,,1,3,Dépendance,,0,,,,,,2.286709,48.871955
2015-1168658,2015-02-18,000001,Vente,610000,16,,AV PERRICHONT,7290,75016,75116,Paris 16e Arrondissement,75,,,75116000BY0021,,,17,82.98,65,,,,,,,,2,2,Appartement,117,4,,,,,,2.272424,48.849493
2015-1168659,2015-02-02,000001,Vente,400000,30,,RUE PARENT DE ROSAN,7063,75016,75116,Paris 16e Arrondissement,75,,,75116000AV0058,,,15,,59,,,,,,,,2,2,Appartement,60,2,,,,,,2.259916,48.840862
2015-1168660,2015-01-30,000001,Vente,763000,72,,RUE MICHEL ANGE,6324,75016,75116,Paris 16e Arrondissement,75,,,75116000AV0038,,,101,,282,,,,,,,,2,2,Appartement,92,4,,,,,,2.258859,48.84239
2015-1168661,2015-01-22,000001,Vente,33000,85,,RUE CHARDON LAGACHE,1790,75016,75116,Paris 16e Arrondissement,75,,,75116000AR0045,,,417,,,,,,,,,,1,3,Dépendance,,0,,,,,,2.263799,48.840529
2015-1168662,2015-02-06,000001,Vente,1350000,15,,RUE DURET,3039,75016,75116,Paris 16e Arrondissement,75,,,75116000FA0031,,,10,,20,145.93,7,,,,,,3,2,Appartement,154,5,,,,,,2.285513,48.874296
2015-1168662,2015-02-06,000001,Vente,1350000,15,,RUE DURET,3039,75016,75116,Paris 16e Arrondissement,75,,,75116000FA0031,,,29,,,,,,,,,,1,3,Dépendance,,0,,,,,,2.285513,48.874296
2015-1168662,2015-02-06,000001,Vente,1350000,15,,RUE DURET,3039,75016,75116,Paris 16e Arrondissement,75,,,75116000FA0031,,,30,,,,,,,,,,1,3,Dépendance,,0,,,,,,2.285513,48.874296
2015-1168663,2015-02-12,000001,Vente,31000,42,,RUE CLAUDE TERRASSE,2084,75016,75116,Paris 16e Arrondissement,75,,,75116000AD0044,,,94,,,,,,,,,,1,3,Dépendance,,0,,,,,,2.260533,48.837868
2015-1168664,2015-02-03,000001,Vente,292500,35,,RUE PARENT DE ROSAN,7063,75016,75116,Paris 16e Arrondissement,75,,,75116000AS0027,,,10,36.03,228,,,,,,,,2,2,Appartement,32,1,,,,,,2.258792,48.840436
2015-1168665,2015-01-30,000001,Vente,394500,10,,RUE PARENT DE ROSAN,7063,75016,75116,Paris 16e Arrondissement,75,,,75116000AR0112,,,43,54.46,,,,,,,,,1,2,Appartement,32,3,,,,,,2.261152,48.840529
2015-1168666,2015-02-05,000001,Vente,470400,14,,RUE LOUIS DAVID,5776,75016,75116,Paris 16e Arrondissement,75,,,75116000DK0007,,,15,64.26,72,,,,,,,,2,2,Appartement,70,2,,,,,,2.280523,48.861704
2015-1168666,2015-02-05,000001,Vente,470400,14,,RUE LOUIS DAVID,5776,75016,75116,Paris 16e Arrondissement,75,,,75116000DK0007,,,47,,,,,,,,,,1,3,Dépendance,,0,,,,,,2.280523,48.861704
2015-1168667,2015-02-13,000001,Vente,330000,14,,RUE LALO,5283,75016,75116,Paris 16e Arrondissement,75,,,75116000EV0046,,,18,39.37,,,,,,,,,1,2,Appartement,38,2,,,,,,2.280452,48.874012
2015-1168668,2015-02-20,000001,Vente,235000,94,,BD FLANDRIN,3663,75016,75116,Paris 16e Arrondissement,75,,,75116000ER0010,,,1326,21,,,,,,,,,1,2,Appartement,220,6,,,,,,2.276294,48.870637
2015-1168669,2015-02-11,000001,Vente,40000,18,,BD FLANDRIN,3663,75016,75116,Paris 16e Arrondissement,75,,,75116000EC0035,,,110,,,,,,,,,,1,3,Dépendance,,0,,,,,,2.272982,48.86588
2015-1168670,2015-02-19,000001,Vente,14000,32,,RUE JEAN DE LA FONTAINE,5249,75016,75116,Paris 16e Arrondissement,75,,,75116000BU0046,,,93,,,,,,,,,,1,3,Dépendance,,0,,,,,,2.272693,48.851675
2015-1168671,2015-02-16,000001,Vente,1750850,59,,RUE D AUTEUIL,0594,75016,75116,Paris 16e Arrondissement,75,,,75116000AN0033,,,143,,76,,,,,,,,2,2,Appartement,90,2,,,,,,2.26303,48.847455
2015-1168671,2015-02-16,000001,Vente,1750850,59,,RUE D AUTEUIL,0594,75016,75116,Paris 16e Arrondissement,75,,,75116000AN0033,,,144,,82,,,,,,,,2,2,Appartement,90,4,,,,,,2.26303,48.847455
2015-1168671,2015-02-16,000001,Vente,1750850,59,,RUE D AUTEUIL,0594,75016,75116,Paris 16e Arrondissement,75,,,75116000AN0033,,,103,,,,,,,,,,1,3,Dépendance,,0,,,,,,2.26303,48.847455
2015-1168672,2015-02-04,000001,Vente,1190500,10,,AV THEOPHILE GAUTIER,9253,75016,75116,Paris 16e Arrondissement,75,,,75116000BZ0053,,,18,,22,,30,,31,,5,135.36,5,2,Appartement,45,2,,,,,,2.274069,48.850935
2015-1168672,2015-02-04,000001,Vente,1190500,10,,AV THEOPHILE GAUTIER,9253,75016,75116,Paris 16e Arrondissement,75,,,75116000BZ0053,,,18,,22,,30,,31,,5,135.36,5,2,Appartement,180,0,,,,,,2.274069,48.850935
2015-1168673,2015-02-04,000001,Vente,340000,77,,RUE MICHEL ANGE,6324,75016,75116,Paris 16e Arrondissement,75,,,75116000AQ0069,,,100,,30,3.6,31,19.9,50,13,,,4,4,Local industriel. commercial ou assimilé,80,0,,,,,,2.259663,48.842099
2015-1168674,2015-02-06,000001,Vente,480000,14,,RUE LOUIS DAVID,5776,75016,75116,Paris 16e Arrondissement,75,,,75116000DK0007,,,61,,,,,,,,,,1,3,Dépendance,,0,,,,,,2.280523,48.861704
2015-1168674,2015-02-06,000001,Vente,480000,23,,RUE CORTAMBERT,2347,75016,75116,Paris 16e Arrondissement,75,,,75116000DK0007,,,2,61.71,37,,,,,,,,2,2,Appartement,68,2,,,,,,2.280523,48.861704
2015-1168675,2015-02-10,000001,Vente,57000,59,,AV MOZART,6626,75016,75116,Paris 16e Arrondissement,75,,,75116000BT0072,,,90,,,,,,,,,,1,3,Dépendance,,0,,,,,,2.269638,48.854408
2015-1168676,2015-02-09,000001,Vente,108260,32,,RUE DE L ASSOMPTION,0503,75016,75116,Paris 16e Arrondissement,75,,,75116000CL0071,,,46,8.26,,,,,,,,,1,3,Dépendance,,0,,,,,,2.272186,48.853993
2015-1168677,2015-02-03,000001,Vente,406000,13,,RUE DE BASSANO,0703,75016,75116,Paris 16e Arrondissement,75,,,75116000FI0025,,,115,39.59,,,,,,,,,1,2,Appartement,40,2,,,,,,2.296748,48.869099
2015-1168678,2015-01-05,000001,Vente,1270000,7,,RUE MICHEL ANGE,6324,75016,75116,Paris 16e Arrondissement,75,,,75116000AN0058,,,20,,,,,,,,,,1,3,Dépendance,,0,,,,,,2.263897,48.84727
2015-1168678,2015-01-05,000001,Vente,1270000,7,A,RUE MICHEL ANGE,6324,75016,75116,Paris 16e Arrondissement,75,,,75116000AN0088,,,3,,9,,,,,,,,2,2,Appartement,120,4,,,,,,2.264142,48.847176
2015-1168679,2015-02-17,000001,Vente,8400000,25,,AV DES TILLEULS,9312,75016,75116,Paris 16e Arrondissement,75,,,75116000BR0022,,,,,,,,,,,,,0,1,Maison,395,16,S,sols,,,621,2.263195,48.851605
2015-1168680,2015-02-12,000001,Vente,3390000,68,,AV D IENA,4693,75016,75116,Paris 16e Arrondissement,75,,,75116000FI0026,,,60,,,,,,,,,,1,3,Dépendance,,0,,,,,,2.296195,48.869526
2015-1168680,2015-02-12,000001,Vente,3390000,68,,AV D IENA,4693,75016,75116,Paris 16e Arrondissement,75,,,75116000FI0026,,,10,266.1,28,,,,,,,,2,2,Appartement,230,6,,,,,,2.296195,48.869526
2015-1168680,2015-02-12,000001,Vente,3390000,68,,AV D IENA,4693,75016,75116,Paris 16e Arrondissement,75,,,75116000FI0026,,,50,,,,,,,,,,1,3,Dépendance,,0,,,,,,2.296195,48.869526
2015-1168681,2015-01-30,000001,Vente,520000,69,,RUE DE L ASSOMPTION,0503,75016,75116,Paris 16e Arrondissement,75,,,75116000BT0040,,,152,,31,66.94,,,,,,,2,2,Appartement,59,2,,,,,,2.267299,48.855034
2015-1168682,2015-02-02,000001,Vente,1000000,40,,AV GEORGES MANDEL,4141,75016,75116,Paris 16e Arrondissement,75,,,75116000DV0053,,,24,,,,,,,,,,1,3,Dépendance,,0,,,,,,2.281008,48.864074
2015-1168682,2015-02-02,000001,Vente,1000000,42,,AV GEORGES MANDEL,4141,75016,75116,Paris 16e Arrondissement,75,,,75116000DV0056,,,1,,,,,,,,,,1,3,Dépendance,,0,,,,,,2.280755,48.86407
2015-1168682,2015-02-02,000001,Vente,1000000,42,,AV GEORGES MANDEL,4141,75016,75116,Paris 16e Arrondissement,75,,,75116000DV0056,,,1,,,,,,,,,,1,2,Appartement,192,4,,,,,,2.280755,48.86407
2015-1168683,2015-02-09,000001,Vente,596000,52,,AV MOZART,6626,75016,75116,Paris 16e Arrondissement,75,,,75116000CN0043,,,29,,9,55.95,,,,,,,2,2,Appartement,52,3,,,,,,2.269468,48.855238
2015-1168684,2015-02-04,000001,Vente,185000,77,,RUE MICHEL ANGE,6324,75016,75116,Paris 16e Arrondissement,75,,,75116000AQ0069,,,30,3.6,32,37.9,,,,,,,2,4,Local industriel. commercial ou assimilé,80,0,,,,,,2.259663,48.842099
2015-1168685,2015-02-11,000001,Vente,155000,34,,RUE PIERRE GUERIN,7439,75016,75116,Paris 16e Arrondissement,75,,,75116000BR0083,,,3,,4,,,,,,,,2,2,Appartement,24,2,,,,,,2.265042,48.850343
2015-1168685,2015-02-11,000001,Vente,155000,34,,RUE PIERRE GUERIN,7439,75016,75116,Paris 16e Arrondissement,75,,,75116000BR0083,,,4,,,,,,,,,,1,2,Appartement,18,1,,,,,,2.265042,48.850343
2015-1168686,2015-02-27,000001,Vente,1009170,14,,AV FOCH,3696,75016,75116,Paris 16e Arrondissement,75,,,75116000FB0037,,,18,,21,,7,79.52,,,,,3,2,Appartement,82,3,,,,,,2.29088,48.874129
2015-1168687,2015-02-13,000001,Vente,1000000,5,,RUE DE MAGDEBOURG,5901,75016,75116,Paris 16e Arrondissement,75,,,75116000FR0055,,,48,,7,122.3,,,,,,,2,2,Appartement,110,3,,,,,,2.289461,48.864144
2015-1168688,2015-02-25,000001,Vente,100000,100,,AV PAUL DOUMER,7149,75016,75116,Paris 16e Arrondissement,75,,,75116000DN0046,,,26,7.29,,,,,,,,,1,3,Dépendance,,0,,,,,,2.275209,48.858611
2015-1168689,2015-02-26,000001,Vente,590000,47,,BD SUCHET,9107,75016,75116,Paris 16e Arrondissement,75,,,75116000BN0017,,,34,67.5,,,,,,,,,1,2,Appartement,75,4,,,,,,2.26416,48.855883
2015-1168690,2015-02-05,000001,Vente,81000,8,,RUE BENOUVILLE,0868,75016,75116,Paris 16e Arrondissement,75,,,75116000DZ0003,,,15,9.89,,,,,,,,,1,3,Dépendance,,0,,,,,,2.277277,48.869443
2015-1168691,2015-02-23,000001,Vente,1190000,8,,RUE DE LA POMPE,7587,75016,75116,Paris 16e Arrondissement,75,,,75116000DN0074,,,3044,,,,,,,,,,1,3,Dépendance,,0,,,,,,2.275532,48.859096
2015-1168691,2015-02-23,000001,Vente,1190000,8,,RUE DE LA POMPE,7587,75016,75116,Paris 16e Arrondissement,75,,,75116000DN0074,,,2007,98.14,2015,,,,,,,,2,2,Appartement,105,3,,,,,,2.275532,48.859096
2015-1168692,2015-02-03,000001,Vente,582000,4,,RUE ROBERT TURQUAN,8269,75016,75116,Paris 16e Arrondissement,75,,,75116000BS0027,,,21,,36,66.04,,,,,,,2,2,Appartement,65,3,,,,,,2.266542,48.853032
2015-1168693,2015-02-05,000001,Vente,882800,148,,AV VICTOR HUGO,9761,75016,75116,Paris 16e Arrondissement,75,,,75116000EA0115,,,12,,45,,,,,,,,2,2,Appartement,92,3,,,,,,2.278835,48.867196
2015-1168693,2015-02-05,000001,Vente,882800,148,,AV VICTOR HUGO,9761,75016,75116,Paris 16e Arrondissement,75,,,75116000EA0115,,,55,,,,,,,,,,1,3,Dépendance,,0,,,,,,2.278835,48.867196
2015-1168694,2015-02-05,000001,Vente,80000,25,,AV MOZART,6626,75016,75116,Paris 16e Arrondissement,75,,,75116000CM0102,,,20,,,,,,,,,,1,3,Dépendance,,0,,,,,,2.271277,48.856018
2015-1168694,2015-02-05,000001,Vente,80000,25,,AV MOZART,6626,75016,75116,Paris 16e Arrondissement,75,,,75116000CM0102,,,15,10.05,,,,,,,,,1,3,Dépendance,,0,,,,,,2.271277,48.856018
2015-1168695,2015-01-12,000001,Vente,931700,23,,BD SUCHET,9107,75016,75116,Paris 16e Arrondissement,75,,,75116000CQ0022,,,403,,,,,,,,,,1,3,Dépendance,,0,,,,,,,
2015-1168695,2015-01-12,000001,Vente,931700,23,,BD SUCHET,9107,75016,75116,Paris 16e Arrondissement,75,,,75116000CQ0022,,,357,,519,103.5,,,,,,,2,2,Appartement,110,3,,,,,,,
2015-1168695,2015-01-12,000001,Vente,931700,23,,BD SUCHET,9107,75016,75116,Paris 16e Arrondissement,75,,,75116000CQ0022,,,479,10.82,,,,,,,,,1,3,Dépendance,,0,,,,,,,
2015-1168696,2015-02-06,000001,Vente,377300,79,,AV RAYMOND POINCARE,8059,75016,75116,Paris 16e Arrondissement,75,,,75116000DX0093,,,113,38.1,138,,,,,,,,2,2,Appartement,36,3,,,,,,2.285165,48.868245
2015-1168697,2015-02-25,000001,Vente,575000,80,,RUE JEAN DE LA FONTAINE,5249,75016,75116,Paris 16e Arrondissement,75,,,75116000BW0080,,,15,52.07,,,,,,,,,1,2,Appartement,50,3,,,,,,2.269032,48.850245
2015-1168698,2015-02-13,000001,Vente,55000,68,,BD EXELMANS,3465,75016,75116,Paris 16e Arrondissement,75,,,75116000AQ0004,,,619,,,,,,,,,,1,3,Dépendance,,0,,,,,,2.261639,48.842888
2015-1168699,2015-02-18,000001,Vente,54000,17,,RUE JOUVENET,5042,75016,75116,Paris 16e Arrondissement,75,,,75116000AQ0036,,,78,,,,,,,,,,1,2,Appartement,33,1,,,,,,2.265446,48.842251
2015-1168700,2015-02-13,000001,Vente,620000,8,,RUE PICCINI,7397,75016,75116,Paris 16e Arrondissement,75,,,75116000FA0033,,,42,,5,64.88,,,,,,,2,2,Appartement,62,3,,,,,,2.285402,48.874132
2015-1168701,2015-02-06,000001,Vente,250000,28,,BD EXELMANS,3465,75016,75116,Paris 16e Arrondissement,75,,,75116000AR0023,,,36,,,,,,,,,,1,2,Appartement,33,3,,,,,,2.264968,48.841331
2015-1168702,2015-02-11,000001,Vente,212000,22,,RUE COPERNIC,2308,75016,75116,Paris 16e Arrondissement,75,,,75116000FE0043,,,26,25.5,61,,,,,,,,2,2,Appartement,23,2,,,,,,2.289047,48.869408
2015-1168703,2015-02-17,000001,Vente,155000,133,,BD MURAT,6639,75016,75116,Paris 16e Arrondissement,75,,,75116000AE0099,,,12,30.44,27,,,,,,,,2,2,Appartement,28,2,,,,,,2.260719,48.837194
2015-1168704,2015-02-11,000001,Vente,932300,35,,RUE DE LA POMPE,7587,75016,75116,Paris 16e Arrondissement,75,,,75116000DM0008,,,185,,54,107.06,,,,,,,2,2,Appartement,110,3,,,,,,2.274833,48.861044
2015-1168704,2015-02-11,000001,Vente,932300,35,,RUE DE LA POMPE,7587,75016,75116,Paris 16e Arrondissement,75,,,75116000DM0008,,,134,,,,,,,,,,1,3,Dépendance,,0,,,,,,2.274833,48.861044
2015-1168705,2015-02-20,000001,Vente,220000,104,,AV DE VERSAILLES,9706,75016,75116,Paris 16e Arrondissement,75,,,75116000AJ0010,,,29,,30,,31,,32,,,,4,2,Appartement,37,1,,,,,,2.270336,48.844527
2015-1168706,2015-02-20,000001,Vente,900000,118,,RUE DE LA POMPE,7587,75016,75116,Paris 16e Arrondissement,75,,,75116000DW0001,,,16,120,4,,,,,,,,2,2,Appartement,120,4,,,,,,2.280468,48.866608
2015-1168706,2015-02-20,000001,Vente,900000,118,,RUE DE LA POMPE,7587,75016,75116,Paris 16e Arrondissement,75,,,75116000DW0001,,,34,9,,,,,,,,,1,3,Dépendance,,0,,,,,,2.280468,48.866608
2015-1168707,2015-02-13,000001,Vente,281300,42,,BD EXELMANS,3465,75016,75116,Paris 16e Arrondissement,75,,,75116000AR0006,,,27,30.56,28,,,,,,,,2,2,Appartement,29,1,,,,,,2.263581,48.841826
2015-1168708,2015-02-11,000001,Vente,530000,33,,RUE FELICIEN DAVID,3545,75016,75116,Paris 16e Arrondissement,75,,,75116000BY0031,,,137,,25,59.04,,,,,,,2,2,Appartement,50,2,,,,,,2.273611,48.848211
2015-1168709,2015-02-09,000001,Vente,54000,57,,RUE DES BELLES FEUILLES,0830,75016,75116,Paris 16e Arrondissement,75,,,75116000EA0049,,,47,,,,,,,,,,1,3,Dépendance,,0,,,,,,2.279863,48.868634
2015-1168710,2015-02-20,000001,Vente,728250,46,,RUE DESBORDES VALMORE,2722,75016,75116,Paris 16e Arrondissement,75,,,75116000DM0066,,,11,74.6,28,,,,,,,,2,2,Appartement,80,2,,,,,,2.2761,48.859911
2015-1168711,2015-02-20,000001,Vente,37000,16,,AV PERRICHONT,7290,75016,75116,Paris 16e Arrondissement,75,,,75116000BY0021,,,109,,,,,,,,,,1,3,Dépendance,,0,,,,,,2.272424,48.849493
2015-1168712,2015-02-18,000001,Vente,1800475,11,,BD DELESSERT,2674,75016,75116,Paris 16e Arrondissement,75,,,75116000DQ0019,,,12,148.74,,,,,,,,,1,2,Appartement,170,5,,,,,,2.28716,48.858852
2015-1168712,2015-02-18,000001,Vente,1800475,11,,BD DELESSERT,2674,75016,75116,Paris 16e Arrondissement,75,,,75116000DQ0019,,,12,148.74,,,,,,,,,1,3,Dépendance,,0,,,,,,2.28716,48.858852
2015-1168713,2015-02-16,000001,Vente,268000,33,,RUE BOULAINVILLIERS,1154,75016,75116,Paris 16e Arrondissement,75,,,75116000CK0040,,,117,34.25,,,,,,,,,1,2,Appartement,35,0,,,,,,2.275164,48.854586
2015-1168714,2015-02-18,000001,Vente,1356435,93,,RUE DE LA FAISANDERIE,3487,75016,75116,Paris 16e Arrondissement,75,,,75116000ED0060,,,214,,,,,,,,,,1,3,Dépendance,,0,,,,,,2.275022,48.866691
2015-1168714,2015-02-18,000001,Vente,1356435,93,,RUE DE LA FAISANDERIE,3487,75016,75116,Paris 16e Arrondissement,75,,,75116000ED0060,,,164,,4,,,,,,,,2,2,Appartement,94,3,,,,,,2.275022,48.866691
2015-1168714,2015-02-18,000001,Vente,1356435,93,,RUE DE LA FAISANDERIE,3487,75016,75116,Paris 16e Arrondissement,75,,,75116000ED0060,,,152,,22,,,,,,,,2,2,Appartement,61,2,,,,,,2.275022,48.866691
2015-1168715,2015-02-19,000001,Vente,215000,82,,RUE DE LA FAISANDERIE,3487,75016,75116,Paris 16e Arrondissement,75,,,75116000ED0033,,,98,10,,,,,,,,,1,3,Dépendance,,0,,,,,,2.274371,48.867182
2015-1168715,2015-02-19,000001,Vente,215000,82,,RUE DE LA FAISANDERIE,3487,75016,75116,Paris 16e Arrondissement,75,,,75116000ED0033,,,143,,,,,,,,,,1,2,Appartement,86,4,,,,,,2.274371,48.867182
2015-1168715,2015-02-19,000001,Vente,215000,82,,RUE DE LA FAISANDERIE,3487,75016,75116,Paris 16e Arrondissement,75,,,75116000ED0033,,,111,,112,,,,,,,,2,3,Dépendance,,0,,,,,,2.274371,48.867182
2015-1168715,2015-02-19,000001,Vente,215000,82,,RUE DE LA FAISANDERIE,3487,75016,75116,Paris 16e Arrondissement,75,,,75116000ED0033,,,102,10,,,,,,,,,1,3,Dépendance,,0,,,,,,2.274371,48.867182
2015-1168716,2015-01-23,000001,Vente,70000,27,,RUE DES VIGNES,9799,75016,75116,Paris 16e Arrondissement,75,,,75116000CK0006,,,115,,,,,,,,,,1,4,Local industriel. commercial ou assimilé,110,0,,,,,,2.276403,48.855282
2015-1168717,2015-02-13,000001,Vente,45000,131,,AV DE VERSAILLES,9706,75016,75116,Paris 16e Arrondissement,75,,,75116000AH0017,,,80,,,,,,,,,,1,3,Dépendance,,0,,,,,,2.269289,48.842643
2015-1168718,2015-01-08,000001,Vente,280000,10,,RUE MIRABEAU,6381,75016,75116,Paris 16e Arrondissement,75,,,75116000AL0026,,,1062,44.26,,,,,,,,,1,4,Local industriel. commercial ou assimilé,45,0,,,,,,2.272318,48.847346
2015-1168719,2015-02-23,000001,Vente,221000,6,,RUE SCHEFFER,8872,75016,75116,Paris 16e Arrondissement,75,,,75116000DS0025,,,112,19.04,,,,,,,,,1,3,Dépendance,,0,,,,,,2.284464,48.860743
2015-1168720,2015-02-11,000001,Vente,116000,4,,AV DU COL BONNET,2199,75016,75116,Paris 16e Arrondissement,75,,,75116000CJ0024,,,11,10.76,,,,,,,,,1,3,Dépendance,,0,,,,,,2.279139,48.85502
2015-1168721,2015-02-25,000001,Vente,532000,41,,AV RAYMOND POINCARE,8059,75016,75116,Paris 16e Arrondissement,75,,,75116000DW0132,,,53,,,,,,,,,,1,3,Dépendance,,0,,,,,,2.285883,48.866159
2015-1168721,2015-02-25,000001,Vente,532000,41,,AV RAYMOND POINCARE,8059,75016,75116,Paris 16e Arrondissement,75,,,75116000DW0132,,,17,52.1,30,,,,,,,,2,2,Appartement,52,2,,,,,,2.285883,48.866159
2015-1168722,2015-02-11,000001,Vente,380000,10,,RUE EUGENE DELACROIX,3409,75016,75116,Paris 16e Arrondissement,75,,,75116000DJ0103,,,1,42.5,,,,,,,,,1,2,Appartement,42,3,,,,,,2.277755,48.862946
2015-1168723,2015-02-12,000001,Vente,150000,114,,RUE DE LA TOUR,9362,75016,75116,Paris 16e Arrondissement,75,,,75116000DI0029,,,9,23.02,,,,,,,,,1,2,Appartement,26,1,,,,,,2.276167,48.86299
2015-1168724,2015-02-26,000001,Vente,2285000,58,,BD EMILE AUGIER,3207,75016,75116,Paris 16e Arrondissement,75,,,75116000DI0091,,,36,,43,220.12,,,,,,,2,2,Appartement,219,5,,,,,,2.272741,48.863352
2015-1168724,2015-02-26,000001,Vente,2285000,58,,BD EMILE AUGIER,3207,75016,75116,Paris 16e Arrondissement,75,,,75116000DI0091,,,17,10.18,,,,,,,,,1,3,Dépendance,,0,,,,,,2.272741,48.863352
2015-1168724,2015-02-26,000001,Vente,2285000,58,,BD EMILE AUGIER,3207,75016,75116,Paris 16e Arrondissement,75,,,75116000DI0091,,,19,10.71,,,,,,,,,1,3,Dépendance,,0,,,,,,2.272741,48.863352
2015-1168725,2015-02-12,000001,Vente,170000,35,,AV BUGEAUD,1373,75016,75116,Paris 16e Arrondissement,75,,,75116000DY0003,,,66,15.5,,,,,,,,,1,2,Appartement,14,1,,,,,,2.28078,48.870347
2015-1168726,2015-02-20,000001,Vente,1200000,26,,RUE JEAN GIRAUDOUX,4893,75016,75116,Paris 16e Arrondissement,75,,,75116000FI0044,,,7,139.73,,,,,,,,,1,2,Appartement,150,5,,,,,,2.29659,48.869798
2015-1168727,2015-02-11,000001,Vente,530000,8,,RUE CDT SCHLOESING,2240,75016,75116,Paris 16e Arrondissement,75,,,75116000DT0009,,,203,,,,,,,,,,1,3,Dépendance,,0,,,,,,2.284225,48.862016
2015-1168727,2015-02-11,000001,Vente,530000,14,,RUE PETRARQUE,7356,75016,75116,Paris 16e Arrondissement,75,,,75116000DT0010,,,2,68.2,,,,,,,,,1,2,Appartement,71,2,,,,,,2.283789,48.861953
2015-1168728,2015-02-12,000001,Vente,800000,33,,AV FOCH,3696,75016,75116,Paris 16e Arrondissement,75,,,75116000FD0013,,,462,,,,,,,,,,1,3,Dépendance,,0,,,,,,2.286709,48.871955
2015-1168728,2015-02-12,000001,Vente,800000,33,,AV FOCH,3696,75016,75116,Paris 16e Arrondissement,75,,,75116000FD0013,,,329,,83,60.64,,,,,,,2,2,Appartement,65,2,,,,,,2.286709,48.871955
2015-1168729,2015-02-18,000001,Vente,720000,54,,BD EXELMANS,3465,75016,75116,Paris 16e Arrondissement,75,,,75116000AQ0013,,,43,,,,,,,,,,1,2,Appartement,111,5,,,,,,2.26261,48.842303
2015-1168729,2015-02-18,000001,Vente,720000,54,,BD EXELMANS,3465,75016,75116,Paris 16e Arrondissement,75,,,75116000AQ0013,,,29,91.2,,,,,,,,,1,2,Appartement,96,4,,,,,,2.26261,48.842303
2015-1168730,2015-02-18,000001,Vente,641620,51,B,AV DE VERSAILLES,9706,75016,75116,Paris 16e Arrondissement,75,,,75116000BY0042,,,56,71.44,,,,,,,,,1,2,Appartement,75,1,,,,,,2.274848,48.847947
2015-1168731,2015-02-09,000001,Vente,1225000,147,,RUE DE LA POMPE,7587,75016,75116,Paris 16e Arrondissement,75,,,75116000DY0024,,,1,163.95,,,,,,,,,1,2,Appartement,152,5,,,,,,2.281295,48.868703
2015-1168732,2015-02-13,000002,Vente,2150000,1,,RUE ALBERIC MAGNARD,0112,75016,75116,Paris 16e Arrondissement,75,,,75116000DG0045,,,2,289.91,9,,,,,,,,2,2,Appartement,316,8,,,,,,2.273076,48.860723
2015-1168732,2015-02-13,000002,Vente,2150000,1,,RUE ALBERIC MAGNARD,0112,75016,75116,Paris 16e Arrondissement,75,,,75116000DG0045,,,38,20.05,,,,,,,,,1,2,Appartement,22,2,,,,,,2.273076,48.860723
2015-1168732,2015-02-13,000002,Vente,2150000,1,,RUE ALBERIC MAGNARD,0112,75016,75116,Paris 16e Arrondissement,75,,,75116000DG0045,,,22,9.39,,,,,,,,,1,3,Dépendance,,0,,,,,,2.273076,48.860723
2015-1168732,2015-02-13,000002,Vente,2150000,10,,RUE ALBERIC MAGNARD,0112,75016,75116,Paris 16e Arrondissement,75,,,75116000DG0051,,,47,,,,,,,,,,1,3,Dépendance,,0,,,,,,2.271962,48.860846
2015-1168732,2015-02-13,000002,Vente,2150000,10,,RUE ALBERIC MAGNARD,0112,75016,75116,Paris 16e Arrondissement,75,,,75116000DG0051,,,46,,,,,,,,,,1,3,Dépendance,,0,,,,,,2.271962,48.860846
2015-1168733,2015-02-24,000001,Vente,1668400,48,,AV PAUL DOUMER,7149,75016,75116,Paris 16e Arrondissement,75,,,75116000DK0035,,,34,,55,,,,,,,,2,2,Appartement,136,4,,,,,,2.28129,48.860526
2015-1168734,2015-02-10,000001,Vente,222000,12,,RUE PERGOLESE,7263,75016,75116,Paris 16e Arrondissement,75,,,75116000EZ0007,,,161,30.77,,,,,,,,,1,2,Appartement,30,1,,,,,,2.284939,48.875843
2015-1168735,2015-02-19,000001,Vente,771000,1,,RUE SCHEFFER,8872,75016,75116,Paris 16e Arrondissement,75,,,75116000DP0085,,,24,,,,,,,,,,1,2,Appartement,95,3,,,,,,2.285077,48.859983
2015-1168735,2015-02-19,000001,Vente,771000,1,,RUE SCHEFFER,8872,75016,75116,Paris 16e Arrondissement,75,,,75116000DP0085,,,24,,,,,,,,,,1,3,Dépendance,,0,,,,,,2.285077,48.859983
2015-1168736,2015-02-26,000001,Vente,88000,19,,RUE EUGENE MANUEL,3425,75016,75116,Paris 16e Arrondissement,75,,,75116000DO0024,,,4,13.87,,,,,,,,,1,3,Dépendance,,0,,,,,,2.279833,48.859587
2015-1168737,2015-02-13,000001,Vente,32000,64,,AV VICTOR HUGO,9761,75016,75116,Paris 16e Arrondissement,75,,,75116000FE0068,,,117,,,,,,,,,,1,3,Dépendance,,0,,,,,,2.28641,48.870629
2015-1168738,2015-02-13,000001,Vente,4800000,103,,AV HENRI MARTIN,4567,75016,75116,Paris 16e Arrondissement,75,,,75116000DH0007,,,246,7.2,,,,,,,,,1,3,Dépendance,,0,,,,,,2.271507,48.863258
2015-1168738,2015-02-13,000001,Vente,4800000,103,,AV HENRI MARTIN,4567,75016,75116,Paris 16e Arrondissement,75,,,75116000DH0007,,,526,,,,,,,,,,1,3,Dépendance,,0,,,,,,2.271507,48.863258
2015-1168738,2015-02-13,000001,Vente,4800000,103,,AV HENRI MARTIN,4567,75016,75116,Paris 16e Arrondissement,75,,,75116000DH0007,,,245,7.4,,,,,,,,,1,3,Dépendance,,0,,,,,,2.271507,48.863258
2015-1168738,2015-02-13,000001,Vente,4800000,103,,AV HENRI MARTIN,4567,75016,75116,Paris 16e Arrondissement,75,,,75116000DH0007,,,305,,,,,,,,,,1,3,Dépendance,,0,,,,,,2.271507,48.863258
2015-1168738,2015-02-13,000001,Vente,4800000,103,,AV HENRI MARTIN,4567,75016,75116,Paris 16e Arrondissement,75,,,75116000DH0007,,,248,6.6,,,,,,,,,1,3,Dépendance,,0,,,,,,2.271507,48.863258
2015-1168738,2015-02-13,000001,Vente,4800000,103,,AV HENRI MARTIN,4567,75016,75116,Paris 16e Arrondissement,75,,,75116000DH0007,,,244,7.5,,,,,,,,,1,3,Dépendance,,0,,,,,,2.271507,48.863258
2015-1168738,2015-02-13,000001,Vente,4800000,103,,AV HENRI MARTIN,4567,75016,75116,Paris 16e Arrondissement,75,,,75116000DH0007,,,247,7.2,,,,,,,,,1,3,Dépendance,,0,,,,,,2.271507,48.863258
2015-1168738,2015-02-13,000001,Vente,4800000,103,,AV HENRI MARTIN,4567,75016,75116,Paris 16e Arrondissement,75,,,75116000DH0007,,,402,,,,,,,,,,1,3,Dépendance,,0,,,,,,2.271507,48.863258
2015-1168738,2015-02-13,000001,Vente,4800000,103,,AV HENRI MARTIN,4567,75016,75116,Paris 16e Arrondissement,75,,,75116000DH0007,,,418,8.2,419,11.2,421,,,,,,3,2,Appartement,20,1,,,,,,2.271507,48.863258
2015-1168738,2015-02-13,000001,Vente,4800000,103,,AV HENRI MARTIN,4567,75016,75116,Paris 16e Arrondissement,75,,,75116000DH0007,,,252,8.1,,,,,,,,,1,3,Dépendance,,0,,,,,,2.271507,48.863258
2015-1168738,2015-02-13,000001,Vente,4800000,103,,AV HENRI MARTIN,4567,75016,75116,Paris 16e Arrondissement,75,,,75116000DH0007,,,410,5.3,411,7,412,8.4,420,,,,4,2,Appartement,20,1,,,,,,2.271507,48.863258
2015-1168738,2015-02-13,000001,Vente,4800000,103,,AV HENRI MARTIN,4567,75016,75116,Paris 16e Arrondissement,75,,,75116000DH0007,,,185,399.8,266,,274,,,,,,3,2,Appartement,420,8,,,,,,2.271507,48.863258
2015-1168739,2015-02-11,000001,Vente,1305000,1,B,BD DE MONTMORENCY,6516,75016,75116,Paris 16e Arrondissement,75,,,75116000BN0007,,,4,147.89,,,,,,,,,1,2,Appartement,150,5,,,,,,2.264758,48.855585
2015-1168740,2015-03-03,000001,Vente,70000,62,,RUE SPONTINI,9059,75016,75116,Paris 16e Arrondissement,75,,,75116000ED0089,,,52,,,,,,,,,,1,3,Dépendance,,0,,,,,,2.276499,48.867256
2015-1168741,2015-01-07,000001,Vente,650000,46,,RUE DE LA TOUR,9362,75016,75116,Paris 16e Arrondissement,75,,,75116000DP0051,,,381,,45,74.92,,,,,,,2,2,Appartement,76,3,,,,,,2.282282,48.86015
2015-1168742,2015-01-13,000001,Vente,81000,4,,PL DE BARCELONE,0669,75016,75116,Paris 16e Arrondissement,75,,,75116000BY0032,,,194,10.3,,,,,,,,,1,3,Dépendance,,0,,,,,,2.273469,48.847895
2015-1168743,2015-01-09,000001,Vente,230000,153,,AV DE VERSAILLES,9706,75016,75116,Paris 16e Arrondissement,75,,,75116000AH0009,,,41,26.33,,,,,,,,,1,2,Appartement,27,2,,,,,,2.267031,48.841435
2015-1168744,2015-02-23,000001,Vente,407000,12,,RUE PAUL VALERY,7186,75016,75116,Paris 16e Arrondissement,75,,,75116000FF0026,,,3,,37,,,,,,,,2,4,Local industriel. commercial ou assimilé,78,0,,,,,,2.290486,48.87002
2015-1168744,2015-02-23,000001,Vente,407000,12,,RUE PAUL VALERY,7186,75016,75116,Paris 16e Arrondissement,75,,,75116000FF0026,,,1,,33,,4,,,,,,3,4,Local industriel. commercial ou assimilé,68,0,,,,,,2.290486,48.87002
2015-1168745,2015-02-12,000001,Vente,103500,15,,RUE DU CONSEILLER COLLIGNON,2277,75016,75116,Paris 16e Arrondissement,75,,,75116000DN0009,,,67,10.57,,,,,,,,,1,3,Dépendance,,0,,,,,,2.272955,48.859217
2015-1168746,2015-02-16,000001,Vente,150000,75,,RUE BOILEAU,1058,75016,75116,Paris 16e Arrondissement,75,,,75116000AR0167,,,3,20.03,31,,,,,,,,2,2,Appartement,19,1,,,,,,2.262729,48.841218
2015-1168747,2015-02-18,000001,Vente,600000,6,,VLA JOCELYN,4983,75016,75116,Paris 16e Arrondissement,75,,,75116000EB0007,,,609,72.22,,,,,,,,,1,2,Appartement,71,3,,,,,,2.276055,48.865299
2015-1168748,2015-02-12,000001,Vente,41000,6,,RUE DE MUSSET,6649,75016,75116,Paris 16e Arrondissement,75,,,75116000AQ0039,,,1192,,,,,,,,,,1,3,Dépendance,,0,,,,,,2.265082,48.842009
2015-1168749,2015-02-18,000001,Vente,1500000,17,,BD EMILE AUGIER,3207,75016,75116,Paris 16e Arrondissement,75,,,75116000DN0004,,,2,156.13,8,,,,,,,,2,2,Appartement,160,5,,,,,,2.273499,48.859902
2015-1168750,2015-02-12,000001,Vente,48000,12,,RUE SINGER,8989,75016,75116,Paris 16e Arrondissement,75,,,75116000CJ0033,,,270,,,,,,,,,,1,3,Dépendance,,0,,,,,,2.279024,48.855992
2015-1168751,2015-01-19,000001,Vente,652000,17,,RUE NICOLO,6771,75016,75116,Paris 16e Arrondissement,75,,,75116000DO0095,,,29,63.09,91,,,,,,,,2,2,Appartement,65,2,,,,,,2.279694,48.858939
2015-1168752,2015-02-19,000001,Vente,50000,8,,RUE JEAN DE LA FONTAINE,5249,75016,75116,Paris 16e Arrondissement,75,,,75116000BU0020,,,19,3.46,20,4.34,,,,,,,2,2,Appartement,19,1,,,,,,2.275125,48.852762
2015-1168753,2015-02-27,000001,Vente,962000,104,,RUE LAURISTON,5401,75016,75116,Paris 16e Arrondissement,75,,,75116000FL0004,,,27,,,,,,,,,,1,3,Dépendance,,0,,,,,,2.286758,48.86672
2015-1168753,2015-02-27,000001,Vente,962000,104,,RUE LAURISTON,5401,75016,75116,Paris 16e Arrondissement,75,,,75116000FL0004,,,47,,6,116.55,,,,,,,2,2,Appartement,143,3,,,,,,2.286758,48.86672
2015-1168754,2015-02-19,000001,Vente,735000,4,,RUE PAUL DUPUY,7153,75016,75116,Paris 16e Arrondissement,75,,,75116000BZ0092,,,81,91.15,,,,,,,,,1,2,Appartement,90,3,,,,,,2.273697,48.849844
2015-1168755,2015-01-29,000001,Vente,,16,,RUE LE MAROIS,5500,75016,75116,Paris 16e Arrondissement,75,,,75116000AD0024,,,39,,40,,,,,,,,2,2,Appartement,24,1,,,,,,2.260074,48.838343
2015-1168756,2015-02-20,000001,Vente,525000,9,,RUE FAUSTIN HELIE,3530,75016,75116,Paris 16e Arrondissement,75,,,75116000DN0042,,,16,,6,54.04,,,,,,,2,2,Appartement,54,2,,,,,,2.275759,48.859378
2015-1168757,2015-02-16,000001,Vente,1295000,65,,RUE RAYNOUARD,8066,75016,75116,Paris 16e Arrondissement,75,,,75116000CD0026,,,142,,18,124.8,,,,,,,2,2,Appartement,125,3,,,,,,2.278536,48.853926
2015-1168757,2015-02-16,000001,Vente,1295000,65,,RUE RAYNOUARD,8066,75016,75116,Paris 16e Arrondissement,75,,,75116000CD0026,,,75,,,,,,,,,,1,3,Dépendance,,0,,,,,,2.278536,48.853926
2015-1168758,2015-02-23,000001,Vente,1750000,49,,RUE DE LA TOUR,9362,75016,75116,Paris 16e Arrondissement,75,,,75116000DL0093,,,10,192.29,,,,,,,,,1,2,Appartement,187,6,,,,,,2.280347,48.860381
2015-1168758,2015-02-23,000001,Vente,1750000,49,,RUE DE LA TOUR,9362,75016,75116,Paris 16e Arrondissement,75,,,75116000DL0093,,,10,192.29,,,,,,,,,1,3,Dépendance,,0,,,,,,2.280347,48.860381
2015-1168759,2015-02-03,000001,Vente,65000,1,,RUE DES BAUCHES,0722,75016,75116,Paris 16e Arrondissement,75,,,75116000CK0067,,,45,,,,,,,,,,1,3,Dépendance,,0,,,,,,2.274594,48.855322
2015-1168760,2015-02-27,000001,Vente,202000,47,,RUE BOILEAU,1058,75016,75116,Paris 16e Arrondissement,75,,,75116000AP0079,,,16,,42,25.12,,,,,,,2,2,Appartement,24,1,,,,,,2.263662,48.843934
