id_mutation,date_mutation,numero_disposition,nature_mutation,valeur_fonciere,adresse_numero,adresse_suffixe,adresse_nom_voie,adresse_code_voie,code_postal,code_commune,nom_commune,code_departement,ancien_code_commune,ancien_nom_commune,id_parcelle,ancien_id_parcelle,numero_volume,lot1_numero,lot1_surface_carrez,lot2_numero,lot2_surface_carrez,lot3_numero,lot3_surface_carrez,lot4_numero,lot4_surface_carrez,lot5_numero,lot5_surface_carrez,nombre_lots,code_type_local,type_local,surface_reelle_bati,nombre_pieces_principales,code_nature_culture,nature_culture,code_nature_culture_speciale,nature_culture_speciale,surface_terrain,longitude,latitude
2016-1256375,2016-01-12,000001,Vente,2480500,6,,RUE DE LONGCHAMP,5744,75016,75116,Paris 16e Arrondissement,75,,,75116000FN0043,,,24,,9,230.45,,,,,,,2,2,Appartement,193,5,,,,,,2.292515,48.865091
2016-1256375,2016-01-12,000001,Vente,2480500,6,,RUE DE LONGCHAMP,5744,75016,75116,Paris 16e Arrondissement,75,,,75116000FN0043,,,24,,9,230.45,,,,,,,2,2,Appartement,35,0,,,,,,2.292515,48.865091
2016-1256376,2016-01-11,000001,Vente,575000,39,,RUE D AUTEUIL,0594,75016,75116,Paris 16e Arrondissement,75,,,75116000AN0065,,,109,,131,76.01,,,,,,,2,2,Appartement,77,3,,,,,,2.265481,48.847329
2016-1256377,2016-01-05,000001,Vente,440000,18,A,RUE MESNIL,6288,75016,75116,Paris 16e Arrondissement,75,,,75116000DX0062,,,419,47.81,,,,,,,,,1,2,Appartement,28,2,,,,,,2.283203,48.868047
2016-1256378,2016-01-07,000001,Vente,3300000,98,,AV RAYMOND POINCARE,8059,75016,75116,Paris 16e Arrondissement,75,,,75116000FE0002,,,213,,34,143.71,,,,,,,2,2,Appartement,155,4,,,,,,2.285748,48.870988
2016-1256379,2016-01-04,000001,Vente,80710,86,,AV FOCH,3696,75016,75116,Paris 16e Arrondissement,75,,,75116000EU0047,,,34,,,,,,,,,,1,3,Dépendance,,0,,,,,,2.277834,48.872823
2016-1256379,2016-01-04,000001,Vente,80710,86,,AV FOCH,3696,75016,75116,Paris 16e Arrondissement,75,,,75116000EU0047,,,30,,,,,,,,,,1,2,Appartement,49,2,,,,,,2.277834,48.872823
2016-1256380,2016-01-08,000001,Vente,93500,10,,RUE GEORGES VILLE,4153,75016,75116,Paris 16e Arrondissement,75,,,75116000FE0034,,,42,8.66,,,,,,,,,1,3,Dépendance,,0,,,,,,2.289351,48.870169
2016-1256381,2016-01-14,000001,Vente,42000,11,B,RUE DE MAGDEBOURG,5901,75016,75116,Paris 16e Arrondissement,75,,,75116000FR0028,,,527,,,,,,,,,,1,3,Dépendance,,0,,,,,,2.288832,48.86445
2016-1256382,2016-01-15,000001,Vente,450950,11,,RUE DE MAGDEBOURG,5901,75016,75116,Paris 16e Arrondissement,75,,,75116000FR0027,,,51,50.03,75,,,,,,,,2,2,Appartement,47,3,,,,,,2.289032,48.864363
2016-1256383,2016-01-11,000001,Vente,590000,49,,AV KLEBER,5159,75016,75116,Paris 16e Arrondissement,75,,,75116000FM0008,,,104,58.51,29,,,,,,,,2,2,Appartement,63,2,,,,,,2.291208,48.86781
2016-1256384,2016-01-08,000001,Vente,5108000,7,,VLA GUIBERT,4378,75016,75116,Paris 16e Arrondissement,75,,,75116000DL0034,,,,,,,,,,,,,0,1,Maison,250,6,S,sols,,,202,2.277401,48.861609
2016-1256385,2016-01-06,000001,Vente,493000,31,,BD EXELMANS,3465,75016,75116,Paris 16e Arrondissement,75,,,75116000AR0029,,,110,,116,,83,,,,,,3,2,Appartement,54,3,,,,,,2.26385,48.841045
2016-1256386,2016-01-08,000001,Vente,740000,11,,RUE DU GAL DELESTRAINT,4029,75016,75116,Paris 16e Arrondissement,75,,,75116000AV0039,,,41,,,,,,,,,,1,3,Dépendance,,0,,,,,,2.258863,48.842627
2016-1256386,2016-01-08,000001,Vente,740000,11,,RUE DU GAL DELESTRAINT,4029,75016,75116,Paris 16e Arrondissement,75,,,75116000AV0039,,,9,86.1,,,,,,,,,1,2,Appartement,86,3,,,,,,2.258863,48.842627
2016-1256386,2016-01-08,000001,Vente,740000,11,,RUE DU GAL DELESTRAINT,4029,75016,75116,Paris 16e Arrondissement,75,,,75116000AV0039,,,24,,,,,,,,,,1,2,Appartement,86,3,,,,,,2.258863,48.842627
2016-1256387,2016-01-07,000001,Vente,42750,22,,RUE GEORGES BIZET,4123,75016,75116,Paris 16e Arrondissement,75,,,75116000FO0019,,,73,,,,,,,,,,1,3,Dépendance,,0,,,,,,2.297233,48.867874
2016-1256388,2016-01-05,000001,Echange,8000,120,,RUE LAURISTON,5401,75016,75116,Paris 16e Arrondissement,75,,,75116000DW0112,,,1156,,,,,,,,,,1,3,Dépendance,,0,,,,,,2.285024,48.865871
2016-1256389,2016-01-05,000002,Echange,12000,120,,RUE LAURISTON,5401,75016,75116,Paris 16e Arrondissement,75,,,75116000DW0112,,,1171,,,,,,,,,,1,3,Dépendance,,0,,,,,,2.285024,48.865871
2016-1256390,2016-01-15,000001,Vente,100000,6,,RUE LEKAIN,5491,75016,75116,Paris 16e Arrondissement,75,,,75116000CI0050,,,54,9.21,,,,,,,,,1,2,Appartement,14,1,,,,,,2.278287,48.856781
2016-1256391,2016-01-15,000001,Vente,73000,119,,RUE DE LONGCHAMP,5744,75016,75116,Paris 16e Arrondissement,75,,,75116000ED0096,,,17,8.07,,,,,,,,,1,3,Dépendance,,0,,,,,,2.27821,48.867049
2016-1256392,2016-01-07,000001,Vente,185000,17,,RUE JOUVENET,5042,75016,75116,Paris 16e Arrondissement,75,,,75116000AQ0036,,,77,22.28,,,,,,,,,1,2,Appartement,23,1,,,,,,2.265446,48.842251
2016-1256393,2016-01-08,000001,Vente,600000,45,,RUE DES VIGNES,9799,75016,75116,Paris 16e Arrondissement,75,,,75116000CK0004,,,155,74.19,8,,,,,,,,2,2,Appartement,74,2,,,,,,2.275481,48.85562
2016-1256394,2016-01-12,000001,Vente,239000,7,,RUE LAURENT PICHAT,5397,75016,75116,Paris 16e Arrondissement,75,,,75116000ET0010,,,23,28.34,28,,,,,,,,2,2,Appartement,30,2,,,,,,2.282206,48.873608
2016-1256395,2016-01-06,000001,Vente,120000,17,,AV PDT WILSON,7804,75016,75116,Paris 16e Arrondissement,75,,,75116000FQ0017,,,59,,,,,,,,,,1,2,Appartement,150,5,,,,,,2.295058,48.864483
2016-1256395,2016-01-06,000001,Vente,120000,17,,AV PDT WILSON,7804,75016,75116,Paris 16e Arrondissement,75,,,75116000FQ0017,,,38,10.04,,,,,,,,,1,3,Dépendance,,0,,,,,,2.295058,48.864483
2016-1256396,2016-01-19,000001,Vente,285000,8,,RUE DE SAIGON,8472,75016,75116,Paris 16e Arrondissement,75,,,75116000FB0004,,,26,34.84,,,,,,,,,1,2,Appartement,38,1,,,,,,2.290591,48.874576
2016-1256397,2016-01-13,000001,Vente,667000,15,,RUE CLAUDE TERRASSE,2084,75016,75116,Paris 16e Arrondissement,75,,,75116000AE0024,,,51,,84,86.94,,,,,,,2,2,Appartement,87,3,,,,,,2.263293,48.839232
2016-1256397,2016-01-13,000001,Vente,667000,15,,RUE CLAUDE TERRASSE,2084,75016,75116,Paris 16e Arrondissement,75,,,75116000AE0024,,,56,,,,,,,,,,1,3,Dépendance,,0,,,,,,2.263293,48.839232
2016-1256398,2016-01-18,000001,Vente,100000,19,,RUE DE CIVRY,2061,75016,75116,Paris 16e Arrondissement,75,,,75116000AY0050,,,167,11.81,,,,,,,,,1,2,Appartement,12,1,,,,,,2.257953,48.842874
2016-1256399,2016-01-20,000001,Vente en l'état futur d'achèvement,657000,,,,,,75116,Paris 16e Arrondissement,75,,,75116000DW0103,,,3044,,,,,,,,,,1,,,,,,,,,,2.284784,48.866419
2016-1256400,2016-01-19,000001,Vente,42000,94,,RUE RAYNOUARD,8066,75016,75116,Paris 16e Arrondissement,75,,,75116000CD0005,,,25,,,,,,,,,,1,3,Dépendance,,0,,,,,,2.276248,48.853214
2016-1256401,2016-01-22,000001,Vente,950000,73,,RUE MICHEL ANGE,6324,75016,75116,Paris 16e Arrondissement,75,,,75116000AQ0071,,,5,122.68,6,,,,,,,,2,2,Appartement,122,5,,,,,,2.259987,48.842415
2016-1256402,2016-01-14,000001,Vente,750000,33,,AV FOCH,3696,75016,75116,Paris 16e Arrondissement,75,,,75116000FD0013,,,136,60.67,185,,,,,,,,2,2,Appartement,65,2,,,,,,2.286709,48.871955
2016-1256402,2016-01-14,000001,Vente,750000,33,,AV FOCH,3696,75016,75116,Paris 16e Arrondissement,75,,,75116000FD0013,,,424,,,,,,,,,,1,3,Dépendance,,0,,,,,,2.286709,48.871955
2016-1256403,2016-01-15,000001,Vente en l'état futur d'achèvement,686000,,,,,,75116,Paris 16e Arrondissement,75,,,75116000DW0103,,,3040,,,,,,,,,,1,,,,,,,,,,2.284784,48.866419
2016-1256404,2016-01-22,000001,Vente,18000,33,,RUE RAFFET,7998,75016,75116,Paris 16e Arrondissement,75,,,75116000BR0066,,,1025,,,,,,,,,,1,3,Dépendance,10,0,,,,,,2.26423,48.851886
2016-1256405,2016-01-06,000001,Vente,102500,123,,RUE DE LONGCHAMP,5744,75016,75116,Paris 16e Arrondissement,75,,,75116000ED0095,,,14,,15,,,,,,,,2,2,Appartement,14,1,,,,,,2.277768,48.867022
2016-1256406,2016-01-19,000001,Vente,383340,42,B,AV GEORGES MANDEL,4141,75016,75116,Paris 16e Arrondissement,75,,,75116000DV0057,,,119,30,,,,,,,,,1,2,Appartement,32,1,,,,,,2.280458,48.864111
2016-1256407,2016-01-15,000001,Vente,219000,26,,RUE DE L ANNONCIATION,0362,75016,75116,Paris 16e Arrondissement,75,,,75116000CI0034,,,154,27.9,,,,,,,,,1,2,Appartement,30,2,,,,,,2.27923,48.857077
2016-1256408,2016-01-22,000001,Vente,68000,11,,RUE WILHEM,9966,75016,75116,Paris 16e Arrondissement,75,,,75116000AJ0018,,,53,,,,,,,,,,1,3,Dépendance,,0,,,,,,2.271149,48.845432
2016-1256409,2016-01-15,000001,Vente,1500000,36,,RUE DES SABLONS,8450,75016,75116,Paris 16e Arrondissement,75,,,75116000DV0044,,,5,163.02,,,,,,,,,1,2,Appartement,160,6,,,,,,2.281956,48.864267
2016-1256410,2016-01-20,000001,Vente,55100,34,,RUE PERGOLESE,7263,75016,75116,Paris 16e Arrondissement,75,,,75116000EW0110,,,50,,,,,,,,,,1,3,Dépendance,,0,,,,,,2.283048,48.874854
2016-1256411,2016-01-14,000001,Vente,1,75,,AV RAYMOND POINCARE,8059,75016,75116,Paris 16e Arrondissement,75,,,75116000DX0093,,,126,,,,,,,,,,1,2,Appartement,18,1,,,,,,2.285165,48.868245
2016-1256412,2016-01-12,000001,Vente,170000,22,,RUE LE SUEUR,5622,75016,75116,Paris 16e Arrondissement,75,,,75116000FA0077,,,3,13.9,,,,,,,,,1,4,Local industriel. commercial ou assimilé,13,0,,,,,,2.28776,48.875396
2016-1256413,2016-01-20,000002,Vente,1875000,78,B,AV HENRI MARTIN,4567,75016,75116,Paris 16e Arrondissement,75,,,75116000EC0028,,,56,,,,,,,,,,1,3,Dépendance,,0,,,,,,2.272655,48.864608
2016-1256413,2016-01-20,000002,Vente,1875000,78,B,AV HENRI MARTIN,4567,75016,75116,Paris 16e Arrondissement,75,,,75116000EC0028,,,41,,,,,,,,,,1,3,Dépendance,,0,,,,,,2.272655,48.864608
2016-1256413,2016-01-20,000002,Vente,1875000,78,B,AV HENRI MARTIN,4567,75016,75116,Paris 16e Arrondissement,75,,,75116000EC0028,,,40,,45,,,,,,,,2,2,Appartement,117,5,,,,,,2.272655,48.864608
2016-1256414,2016-01-06,000001,Vente,130000,36,,BD SUCHET,9107,75016,75116,Paris 16e Arrondissement,75,,,75116000CQ0012,,,25,8.04,,,,,,,,,1,3,Dépendance,,0,,,,,,2.264825,48.858275
2016-1256414,2016-01-06,000001,Vente,130000,36,,BD SUCHET,9107,75016,75116,Paris 16e Arrondissement,75,,,75116000CQ0012,,,24,12.94,,,,,,,,,1,3,Dépendance,,0,,,,,,2.264825,48.858275
2016-1256415,2016-01-25,000001,Vente,610100,112,,BD EXELMANS,3465,75016,75116,Paris 16e Arrondissement,75,,,75116000AZ0035,,,11,,22,78.96,,,,,,,2,2,Appartement,79,4,,,,,,2.258941,48.845905
2016-1256416,2016-01-08,000001,Vente,130000,17,,RUE BOULAINVILLIERS,1154,75016,75116,Paris 16e Arrondissement,75,,,75116000CL0049,,,48,13.55,,,,,,,,,1,2,Appartement,15,1,,,,,,2.275498,48.853249
2016-1256417,2016-01-16,000001,Vente,358980,59,,RUE BOILEAU,1058,75016,75116,Paris 16e Arrondissement,75,,,75116000AQ0019,,,230,43.05,,,,,,,,,1,2,Appartement,35,1,,,,,,2.263751,48.84283
2016-1256418,2016-01-15,000001,Vente,58000,9,,RUE DU GAL DELESTRAINT,4029,75016,75116,Paris 16e Arrondissement,75,,,75116000AY0064,,,24,8.41,,,,,,,,,1,2,Appartement,8,1,,,,,,2.259054,48.842802
2016-1256419,2016-01-22,000001,Vente,45000,4,,RUE SINGER,8989,75016,75116,Paris 16e Arrondissement,75,,,75116000CJ0027,,,56,,,,,,,,,,1,3,Dépendance,,0,,,,,,2.279394,48.855184
2016-1256420,2016-01-22,000001,Vente,421700,28,,RUE BOISSIERE,1074,75016,75116,Paris 16e Arrondissement,75,,,75116000FM0020,,,321,,322,,514,,515,,,,4,2,Appartement,50,3,,,,,,2.291203,48.866813
2016-1256421,2016-02-02,000001,Vente,65000,6,,RUE DE LA FAISANDERIE,3487,75016,75116,Paris 16e Arrondissement,75,,,75116000ER0005,,,156,,,,,,,,,,1,3,Dépendance,,0,,,,,,2.276901,48.870977
2016-1256422,2016-01-22,000001,Vente,687000,4,,RUE SINGER,8989,75016,75116,Paris 16e Arrondissement,75,,,75116000CJ0027,,,14,68.06,,,,,,,,,1,2,Appartement,70,2,,,,,,2.279394,48.855184
2016-1256423,2016-01-14,000001,Vente,160000,2,,RUE DES MARRONNIERS,6118,75016,75116,Paris 16e Arrondissement,75,,,75116000CK0007,,,339,22.1,340,,,,,,,,2,2,Appartement,22,1,,,,,,2.27696,48.854768
2016-1256424,2016-01-27,000001,Vente,82000,15,,RUE SPONTINI,9059,75016,75116,Paris 16e Arrondissement,75,,,75116000DZ0032,,,34,8.87,,,,,,,,,1,3,Dépendance,,0,,,,,,2.278473,48.869592
2016-1256425,2016-01-21,000001,Vente,28500000,31,,RUE OCTAVE FEUILLET,6864,75016,75116,Paris 16e Arrondissement,75,,,75116000DH0032,,,1,,2,,3,,33,,,,4,2,Appartement,1469,14,,,,,,2.270614,48.862176
2016-1256426,2016-01-21,000001,Vente,65000,40,,AV GEORGES MANDEL,4141,75016,75116,Paris 16e Arrondissement,75,,,75116000DV0053,,,18,15.7,,,,,,,,,1,3,Dépendance,,0,,,,,,2.281008,48.864074
2016-1256426,2016-01-21,000001,Vente,65000,40,,AV GEORGES MANDEL,4141,75016,75116,Paris 16e Arrondissement,75,,,75116000DV0053,,,18,15.7,,,,,,,,,1,3,Dépendance,,0,,,,,,2.281008,48.864074
2016-1256427,2016-01-25,000001,Vente,18100000,46,,RUE LAURISTON,5401,75016,75116,Paris 16e Arrondissement,75,,,75116000FF0021,,,,,,,,,,,,,0,4,Local industriel. commercial ou assimilé,3421,0,S,sols,,,912,2.290668,48.870296
2016-1256428,2016-01-29,000001,Vente,592725,144,,BD EXELMANS,3465,75016,75116,Paris 16e Arrondissement,75,,,75116000AZ0019,,,11,,43,59.12,,,,,,,2,2,Appartement,60,2,,,,,,2.25992,48.84771
2016-1256429,2016-01-11,000001,Vente,320000,84,,RUE LAURISTON,5401,75016,75116,Paris 16e Arrondissement,75,,,75116000FK0132,,,196,,55,,58,,,,,,3,2,Appartement,392,0,,,,,,2.287285,48.867325
2016-1256430,2016-01-14,000001,Vente,2290000,127,,RUE DE LONGCHAMP,5744,75016,75116,Paris 16e Arrondissement,75,,,75116000ED0093,,,23,,9,222.15,,,,,,,2,2,Appartement,240,7,,,,,,2.277244,48.867259
2016-1256431,2016-01-22,000001,Vente,382500,20,B,RUE BOILEAU,1058,75016,75116,Paris 16e Arrondissement,75,,,75116000AN0094,,,4161,47.14,4187,,,,,,,,2,2,Appartement,47,2,,,,,,2.264013,48.846179
2016-1256431,2016-01-22,000001,Vente,382500,20,B,RUE BOILEAU,1058,75016,75116,Paris 16e Arrondissement,75,,,75116000AN0094,,,4339,,,,,,,,,,1,3,Dépendance,,0,,,,,,2.264013,48.846179
2016-1256432,2016-01-13,000001,Vente,387750,3,,RUE MARBEAU,5991,75016,75116,Paris 16e Arrondissement,75,,,75116000EV0050,,,112,,132,44.8,,,,,,,2,2,Appartement,45,3,,,,,,2.281055,48.873851
2016-1256433,2016-01-28,000001,Vente,815010,31,,RUE GEORGE SAND,4116,75016,75116,Paris 16e Arrondissement,75,,,75116000BW0053,,,11,,22,96.7,,,,,,,2,2,Appartement,93,4,,,,,,2.26742,48.850272
2016-1256434,2016-01-13,000001,Vente,1034000,41,,RUE DE PASSY,7087,75016,75116,Paris 16e Arrondissement,75,,,75116000CH0031,,,194,,55,105.47,,,,,,,2,2,Appartement,105,3,,,,,,2.280917,48.857547
2016-1256434,2016-01-13,000001,Vente,1034000,41,,RUE DE PASSY,7087,75016,75116,Paris 16e Arrondissement,75,,,75116000CH0031,,,274,,,,,,,,,,1,3,Dépendance,,0,,,,,,2.280917,48.857547
2016-1256435,2016-01-28,000001,Vente,1170000,3,,AV PAUL DOUMER,7149,75016,75116,Paris 16e Arrondissement,75,,,75116000DS0015,,,116,,63,120.56,,,,,,,2,2,Appartement,123,4,,,,,,2.285408,48.861436
2016-1256436,2016-01-28,000001,Vente,470000,9,,RUE DE VARIZE,9603,75016,75116,Paris 16e Arrondissement,75,,,75116000AS0002,,,12,51.5,,,,,,,,,1,2,Appartement,50,3,,,,,,2.257585,48.840831
2016-1256437,2016-01-13,000001,Vente,70000,2,,PL DE BARCELONE,0669,75016,75116,Paris 16e Arrondissement,75,,,75116000BY0032,,,358,8.2,,,,,,,,,1,3,Dépendance,,0,,,,,,2.273469,48.847895
2016-1256438,2016-01-25,000001,Vente,250000,119,,BD EXELMANS,3465,75016,75116,Paris 16e Arrondissement,75,,,75116000AZ0010,,,15,31.75,,,,,,,,,1,2,Appartement,32,2,,,,,,2.258342,48.846328
2016-1256439,2016-01-15,000001,Vente,272500,11,,BD SUCHET,9107,75016,75116,Paris 16e Arrondissement,75,,,75116000DE0021,,,108,31.81,149,,,,,,,,2,2,Appartement,34,1,,,,,,2.267344,48.859878
2016-1256440,2016-02-01,000001,Vente,950000,6,,RUE DE LONGCHAMP,5744,75016,75116,Paris 16e Arrondissement,75,,,75116000FN0043,,,16,,8,91.7,,,,,,,2,2,Appartement,91,3,,,,,,2.292515,48.865091
2016-1256441,2016-01-29,000001,Vente,290000,29,,AV PERRICHONT,7290,75016,75116,Paris 16e Arrondissement,75,,,75116000BZ0096,,,27,,,,,,,,,,1,2,Appartement,52,2,,,,,,2.273796,48.849322
2016-1256441,2016-01-29,000001,Vente,290000,29,,AV PERRICHONT,7290,75016,75116,Paris 16e Arrondissement,75,,,75116000BZ0096,,,3,51.31,,,,,,,,,1,2,Appartement,51,2,,,,,,2.273796,48.849322
2016-1256442,2016-01-18,000001,Vente,100000,1,,RUE PAUL DELAROCHE,7139,75016,75116,Paris 16e Arrondissement,75,,,75116000DO0010,,,16,8.42,,,,,,,,,1,3,Dépendance,,0,,,,,,2.277563,48.858776
2016-1256443,2016-01-19,000001,Vente,60000,11,,RUE DE L ANNONCIATION,0362,75016,75116,Paris 16e Arrondissement,75,,,75116000CJ0045,,,15,8.79,,,,,,,,,1,3,Dépendance,,0,,,,,,2.279893,48.855985
2016-1256444,2016-01-29,000001,Vente,55000,2,,RUE OSWALDO CRUZ,6964,75016,75116,Paris 16e Arrondissement,75,,,75116000CN0001,,,23,8.6,,,,,,,,,1,3,Dépendance,,0,,,,,,2.269305,48.855917
2016-1256445,2016-01-15,000001,Vente,210000,56,,RUE DE PASSY,7087,75016,75116,Paris 16e Arrondissement,75,,,75116000DO0130,,,18,,,,,,,,,,1,3,Dépendance,,0,,,,,,2.278405,48.858201
2016-1256445,2016-01-15,000001,Vente,210000,56,,RUE DE PASSY,7087,75016,75116,Paris 16e Arrondissement,75,,,75116000DO0130,,,16,31.63,,,,,,,,,1,3,Dépendance,,0,,,,,,2.278405,48.858201
2016-1256445,2016-01-15,000001,Vente,210000,56,,RUE DE PASSY,7087,75016,75116,Paris 16e Arrondissement,75,,,75116000DO0130,,,17,,,,,,,,,,1,3,Dépendance,,0,,,,,,2.278405,48.858201
2016-1256446,2016-01-20,000001,Vente,90000,11,,AV DE LAMBALLE,5294,75016,75116,Paris 16e Arrondissement,75,,,75116000CE0022,,,116,9.83,,,,,,,,,1,3,Dépendance,,0,,,,,,2.280637,48.854306
2016-1256447,2016-01-20,000001,Vente,35000,24,,RUE DE L'AMIRAL HAMELIN,4465,75016,75116,Paris 16e Arrondissement,75,,,75116000FM0045,,,202,,,,,,,,,,1,3,Dépendance,,0,,,,,,2.292524,48.867088
2016-1256448,2016-01-11,000001,Vente,906600,65,,RUE JEAN DE LA FONTAINE,5249,75016,75116,Paris 16e Arrondissement,75,,,75116000BX0019,,,112,,25,95.7,,,,,,,2,2,Appartement,96,3,,,,,,2.267644,48.849275
2016-1256449,2016-01-28,000001,Vente,1150690,19,,AV DE VERSAILLES,9706,75016,75116,Paris 16e Arrondissement,75,,,75116000CA0050,,,106,10.21,,,,,,,,,1,3,Dépendance,,0,,,,,,2.276925,48.85005
2016-1256449,2016-01-28,000001,Vente,1150690,19,,AV DE VERSAILLES,9706,75016,75116,Paris 16e Arrondissement,75,,,75116000CA0050,,,129,108.07,177,,,,,,,,2,2,Appartement,102,4,,,,,,2.276925,48.85005
2016-1256449,2016-01-28,000001,Vente,1150690,3,,QUAI LOUIS BLERIOT,5766,75016,75116,Paris 16e Arrondissement,75,,,75116000CB0023,,,133,,,,,,,,,,1,3,Dépendance,,0,,,,,,2.278506,48.850837
2016-1256450,2016-01-12,000001,Vente,127000,75,B,RUE MICHEL ANGE,6324,75016,75116,Paris 16e Arrondissement,75,,,75116000AQ0070,,,79,8.33,80,8.01,,,,,,,2,3,Dépendance,,0,,,,,,2.259991,48.842219
2016-1256451,2016-01-12,000002,Vente,373000,75,,RUE MICHEL ANGE,6324,75016,75116,Paris 16e Arrondissement,75,,,75116000AQ0070,,,127,,,,,,,,,,1,3,Dépendance,,0,,,,,,2.259991,48.842219
2016-1256451,2016-01-12,000002,Vente,373000,75,B,RUE MICHEL ANGE,6324,75016,75116,Paris 16e Arrondissement,75,,,75116000AQ0070,,,58,75.08,,,,,,,,,1,2,Appartement,76,3,,,,,,2.259991,48.842219
2016-1256452,2016-02-05,000001,Vente,100000,143,,RUE DE LA POMPE,7587,75016,75116,Paris 16e Arrondissement,75,,,75116000EA0014,,,247,,,,,,,,,,1,3,Dépendance,,0,,,,,,2.281025,48.868591
2016-1256452,2016-02-05,000001,Vente,100000,143,,RUE DE LA POMPE,7587,75016,75116,Paris 16e Arrondissement,75,,,75116000EA0014,,,264,8.15,265,,,,,,,,2,3,Dépendance,,0,,,,,,2.281025,48.868591
2016-1256453,2016-02-02,000001,Vente,295850,19,,AV PAUL DOUMER,7149,75016,75116,Paris 16e Arrondissement,75,,,75116000DS0012,,,1034,29.46,,,,,,,,,1,2,Appartement,31,1,,,,,,2.284183,48.860985
2016-1256454,2016-01-21,000001,Vente,290000,5,,RUE HENRI DE BORNIER,4549,75016,75116,Paris 16e Arrondissement,75,,,75116000DG0012,,,16,25.5,,,,,,,,,1,2,Appartement,25,1,,,,,,2.270986,48.861482
2016-1256455,2016-01-12,000001,Vente,136000,15,,RUE DUFRENOY,2962,75016,75116,Paris 16e Arrondissement,75,,,75116000EC0042,,,7,,96,26.55,,,,,,,2,2,Appartement,27,1,,,,,,2.273406,48.866042
2016-1256456,2016-01-29,000001,Vente,760000,65,,RUE JEAN DE LA FONTAINE,5249,75016,75116,Paris 16e Arrondissement,75,,,75116000BX0019,,,56,8.2,,,,,,,,,1,3,Dépendance,,0,,,,,,2.267644,48.849275
2016-1256456,2016-01-29,000001,Vente,760000,65,,RUE JEAN DE LA FONTAINE,5249,75016,75116,Paris 16e Arrondissement,75,,,75116000BX0019,,,24,84.6,,,,,,,,,1,2,Appartement,61,2,,,,,,2.267644,48.849275
2016-1256457,2016-01-06,000001,Vente,43000,50,,RUE DU RANELAGH,8029,75016,75116,Paris 16e Arrondissement,75,,,75116000CK0045,,,262,,,,,,,,,,1,3,Dépendance,,0,,,,,,2.274039,48.855067
2016-1256458,2016-01-29,000001,Vente,381300,5,,VLA CHANEZ,1742,75016,75116,Paris 16e Arrondissement,75,,,75116000AZ0050,,,161,57.41,,,,,,,,,1,2,Appartement,45,2,,,,,,2.260591,48.847425
2016-1256459,2016-01-22,000001,Vente,2342050,8,,RUE CDT SCHLOESING,2240,75016,75116,Paris 16e Arrondissement,75,,,75116000DT0009,,,209,192.2,,,,,,,,,1,3,Dépendance,,0,,,,,,2.284225,48.862016
2016-1256459,2016-01-22,000001,Vente,2342050,14,,RUE PETRARQUE,7356,75016,75116,Paris 16e Arrondissement,75,,,75116000DT0010,,,13,,,,,,,,,,1,2,Appartement,173,6,,,,,,2.283789,48.861953
2016-1256460,2016-01-29,000001,Vente,162000,33,,RUE GEORGE SAND,4116,75016,75116,Paris 16e Arrondissement,75,,,75116000BW0051,,,37,17.35,38,,,,,,,,2,2,Appartement,20,2,,,,,,2.267323,48.850381
2016-1256461,2016-01-19,000001,Vente,250000,158,,AV DE VERSAILLES,9706,75016,75116,Paris 16e Arrondissement,75,,,75116000AR0037,,,253,,,,,,,,,,1,3,Dépendance,,0,,,,,,2.264163,48.840669
2016-1256461,2016-01-19,000001,Vente,250000,158,,AV DE VERSAILLES,9706,75016,75116,Paris 16e Arrondissement,75,,,75116000AR0037,,,226,35.5,256,,265,,,,,,3,2,Appartement,37,3,,,,,,2.264163,48.840669
2016-1256462,2016-02-01,000001,Vente en l'état futur d'achèvement,895000,,,,,,75116,Paris 16e Arrondissement,75,,,75116000DW0103,,,3014,,,,,,,,,,1,,,,,,,,,,2.284784,48.866419
2016-1256462,2016-02-01,000001,Vente en l'état futur d'achèvement,895000,3,,RUE DES SABLONS,8450,75016,75116,Paris 16e Arrondissement,75,,,75116000DW0103,,,2034,,,,,,,,,,1,,,,,,,,,,2.284784,48.866419
2016-1256462,2016-02-01,000001,Vente en l'état futur d'achèvement,895000,,,,,,75116,Paris 16e Arrondissement,75,,,75116000DW0103,,,3025,,,,,,,,,,1,,,,,,,,,,2.284784,48.866419
2016-1256463,2016-01-18,000001,Vente,252000,16,,RUE DE PASSY,7087,75016,75116,Paris 16e Arrondissement,75,,,75116000DP0023,,,36,17.72,37,11.76,,,,,,,2,3,Dépendance,,0,,,,,,2.28263,48.858435
2016-1256463,2016-01-18,000001,Vente,252000,16,,RUE DE PASSY,7087,75016,75116,Paris 16e Arrondissement,75,,,75116000DP0023,,,35,9.82,,,,,,,,,1,2,Appartement,9,1,,,,,,2.28263,48.858435
2016-1256464,2016-01-26,000001,Vente,503000,14,,RUE COPERNIC,2308,75016,75116,Paris 16e Arrondissement,75,,,75116000FK0044,,,15,,9,54.06,,,,,,,2,2,Appartement,54,1,,,,,,2.290301,48.869232
2016-1256465,2016-01-15,000001,Vente,85000,3,,VLA MOZART,6628,75016,75116,Paris 16e Arrondissement,75,,,75116000BT0060,,,35,,,,,,,,,,1,3,Dépendance,,0,,,,,,2.269303,48.853513
2016-1256466,2016-01-20,000001,Vente,42000,3,,VLA FAISANDERIE,3488,75016,75116,Paris 16e Arrondissement,75,,,75116000EE0005,,,47,,,,,,,,,,1,3,Dépendance,,0,,,,,,2.27594,48.869847
2016-1256467,2016-01-20,000001,Vente,50000,11,,RUE DU GAL DELESTRAINT,4029,75016,75116,Paris 16e Arrondissement,75,,,75116000AV0039,,,45,,,,,,,,,,1,3,Dépendance,,0,,,,,,2.258863,48.842627
2016-1256468,2016-01-27,000001,Vente,72000,14,,AV THEOPHILE GAUTIER,9253,75016,75116,Paris 16e Arrondissement,75,,,75116000BZ0040,,,103,,,,,,,,,,1,3,Dépendance,,0,,,,,,2.273556,48.85089
2016-1256468,2016-01-27,000001,Vente,72000,2,,AV THEOPHILE GAUTIER,9253,75016,75116,Paris 16e Arrondissement,75,,,75116000BZ0058,,,49,,,,,,,,,,1,3,Dépendance,,0,,,,,,2.274721,48.851151
2016-1256469,2016-01-19,000001,Vente,400100,8,,RUE LALO,5283,75016,75116,Paris 16e Arrondissement,75,,,75116000EV0051,,,12,43.98,31,,,,,,,,2,2,Appartement,40,2,,,,,,2.280818,48.873752
2016-1256470,2016-01-18,000001,Vente,50000,10,,RUE NICOLO,6771,75016,75116,Paris 16e Arrondissement,75,,,75116000DO0056,,,203,,,,,,,,,,1,3,Dépendance,,0,,,,,,2.281038,48.858706
2016-1256471,2016-01-15,000001,Vente,1985000,11,,VC CHAUSSEE DE LA MUETTE,6631,75016,75116,Paris 16e Arrondissement,75,,,75116000CM0024,,,15,188.06,23,,24,,25,,,,4,2,Appartement,176,6,,,,,,2.273885,48.858031
2016-1256472,2016-02-05,000001,Vente,313000,28,,RUE CLAUDE LORRAIN,2078,75016,75116,Paris 16e Arrondissement,75,,,75116000AQ0063,,,49,,86,35.19,,,,,,,2,2,Appartement,35,1,,,,,,2.260497,48.841663
2016-1256473,2016-01-26,000001,Vente,2500000,45,,BD DE BEAUSEJOUR,0794,75016,75116,Paris 16e Arrondissement,75,,,75116000CO0010,,,37,,40,,7,220.05,,,,,3,2,Appartement,235,7,,,,,,2.268351,48.85678
2016-1256474,2016-01-21,000001,Vente,50000,39,,RUE DOCTEUR BLANCHE,2817,75016,75116,Paris 16e Arrondissement,75,,,75116000BS0016,,,47,,,,,,,,,,1,3,Dépendance,,0,,,,,,2.265749,48.853327
2016-1256475,2016-01-11,000001,Vente,1,18,A,RUE MESNIL,6288,75016,75116,Paris 16e Arrondissement,75,,,75116000DX0062,,,707,,,,,,,,,,1,2,Appartement,44,2,,,,,,2.283203,48.868047
2016-1256476,2016-02-01,000001,Vente,27000,85,,RUE CHARDON LAGACHE,1790,75016,75116,Paris 16e Arrondissement,75,,,75116000AR0045,,,348,,,,,,,,,,1,3,Dépendance,,0,,,,,,2.263799,48.840529
2016-1256477,2016-01-26,000001,Vente,5000,20,B,RUE BOILEAU,1058,75016,75116,Paris 16e Arrondissement,75,,,75116000AN0094,,,4142,,,,,,,,,,1,3,Dépendance,,0,,,,,,2.264013,48.846179
2016-1256478,2016-02-02,000001,Vente,1420000,18,,RUE BENJAMIN FRANKLIN,3822,75016,75116,Paris 16e Arrondissement,75,,,75116000DS0046,,,6,146.35,,,,,,,,,1,2,Appartement,140,5,,,,,,2.285974,48.860066
2016-1256479,2016-01-28,000001,Vente,689000,72,,RUE D AUTEUIL,0594,75016,75116,Paris 16e Arrondissement,75,,,75116000BQ0151,,,33,,,,,,,,,,1,3,Dépendance,,0,,,,,,2.261053,48.848079
2016-1256479,2016-01-28,000001,Vente,689000,72,,RUE D AUTEUIL,0594,75016,75116,Paris 16e Arrondissement,75,,,75116000BQ0151,,,21,61.84,,,,,,,,,1,2,Appartement,60,3,,,,,,2.261053,48.848079
2016-1256480,2016-02-08,000001,Vente,1060000,102,,QUAI LOUIS BLERIOT,5766,75016,75116,Paris 16e Arrondissement,75,,,75116000AJ0015,,,1035,120.11,1036,,,,,,,,2,2,Appartement,110,4,,,,,,2.270776,48.844019
2016-1256481,2016-01-20,000001,Vente,565000,104,,AV DE VERSAILLES,9706,75016,75116,Paris 16e Arrondissement,75,,,75116000AJ0010,,,1,74.11,33,,,,,,,,2,2,Appartement,74,3,,,,,,2.270336,48.844527
2016-1256482,2016-01-29,000001,Vente,834200,46,,RUE DE LA TOUR,9362,75016,75116,Paris 16e Arrondissement,75,,,75116000DP0051,,,498,,,,,,,,,,1,3,Dépendance,,0,,,,,,2.282282,48.86015
2016-1256482,2016-01-29,000001,Vente,834200,46,,RUE DE LA TOUR,9362,75016,75116,Paris 16e Arrondissement,75,,,75116000DP0051,,,33,90.42,349,,,,,,,,2,2,Appartement,93,3,,,,,,2.282282,48.86015
2016-1256483,2016-01-14,000001,Vente,42000,7,,AV LA GRANDE ARMEE,4271,75016,75116,Paris 16e Arrondissement,75,,,75116000FB0016,,,31,,,,,,,,,,1,4,Local industriel. commercial ou assimilé,99,0,,,,,,2.292082,48.874184
2016-1256483,2016-01-14,000001,Vente,42000,7,,AV LA GRANDE ARMEE,4271,75016,75116,Paris 16e Arrondissement,75,,,75116000FB0016,,,31,,,,,,,,,,1,2,Appartement,119,4,,,,,,2.292082,48.874184
2016-1256484,2016-01-29,000001,Vente,105000,9,,RUE EUGENE MANUEL,3425,75016,75116,Paris 16e Arrondissement,75,,,75116000DO0052,,,81,,,,,,,,,,1,3,Dépendance,,0,,,,,,2.280947,48.859292
2016-1256484,2016-01-29,000001,Vente,105000,9,,RUE EUGENE MANUEL,3425,75016,75116,Paris 16e Arrondissement,75,,,75116000DO0052,,,80,,,,,,,,,,1,3,Dépendance,,0,,,,,,2.280947,48.859292
2016-1256485,2016-01-26,000001,Vente,6710000,28,,RUE VINEUSE,9860,75016,75116,Paris 16e Arrondissement,75,,,75116000DS0034,,,,,,,,,,,,,0,4,Local industriel. commercial ou assimilé,504,0,S,sols,,,190,2.28545,48.86062
2016-1256485,2016-01-26,000001,Vente,6710000,28,,RUE VINEUSE,9860,75016,75116,Paris 16e Arrondissement,75,,,75116000DS0034,,,,,,,,,,,,,0,3,Dépendance,,0,S,sols,,,190,2.28545,48.86062
2016-1256486,2016-01-21,000001,Vente,170000,2,,RUE MICHEL ANGE,6324,75016,75116,Paris 16e Arrondissement,75,,,75116000AN0034,,,75,,76,,,,,,,,2,2,Appartement,18,2,,,,,,2.263653,48.847801
2016-1256487,2016-02-09,000001,Vente,162605,17,,BD JULES SANDEAU,5101,75016,75116,Paris 16e Arrondissement,75,,,75116000DG0022,,,25,9.42,,,,,,,,,1,3,Dépendance,,0,,,,,,2.272528,48.86192
2016-1256487,2016-02-09,000001,Vente,162605,17,,BD JULES SANDEAU,5101,75016,75116,Paris 16e Arrondissement,75,,,75116000DG0022,,,24,9.71,,,,,,,,,1,3,Dépendance,,0,,,,,,2.272528,48.86192
2016-1256488,2016-01-28,000001,Vente,840000,12,,BD FLANDRIN,3663,75016,75116,Paris 16e Arrondissement,75,,,75116000EC0033,,,25,71.16,3,,,,,,,,2,2,Appartement,84,2,,,,,,2.272975,48.865474
2016-1256489,2016-01-12,000001,Vente,800000,9,,RUE DU PERE BROTTIER,7254,75016,75116,Paris 16e Arrondissement,75,,,75116000BZ0002,,,35,,9,92.16,,,,,,,2,2,Appartement,87,4,,,,,,2.271073,48.850028
2016-1256490,2016-01-29,000001,Vente,2020000,64,B,RUE PERGOLESE,7263,75016,75116,Paris 16e Arrondissement,75,,,75116000EV0020,,,44,,,,,,,,,,1,3,Dépendance,,0,,,,,,2.28055,48.87328
2016-1256490,2016-01-29,000001,Vente,2020000,1,,RUE MARBEAU,5991,75016,75116,Paris 16e Arrondissement,75,,,75116000EV0054,,,105,,120,,144,301.57,,,,,3,2,Appartement,198,5,,,,,,2.281176,48.873789
2016-1256490,2016-01-29,000001,Vente,2020000,1,,RUE MARBEAU,5991,75016,75116,Paris 16e Arrondissement,75,,,75116000EV0054,,,151,28.73,,,,,,,,,1,3,Dépendance,,0,,,,,,2.281176,48.873789
2016-1256490,2016-01-29,000001,Vente,2020000,1,,RUE MARBEAU,5991,75016,75116,Paris 16e Arrondissement,75,,,75116000EV0054,,,121,,122,,145,,,,,,3,2,Appartement,104,5,,,,,,2.281176,48.873789
2016-1256490,2016-01-29,000001,Vente,2020000,1,,RUE MARBEAU,5991,75016,75116,Paris 16e Arrondissement,75,,,75116000EV0054,,,151,28.73,,,,,,,,,1,3,Dépendance,,0,,,,,,2.281176,48.873789
2016-1256490,2016-01-29,000001,Vente,2020000,1,,RUE MARBEAU,5991,75016,75116,Paris 16e Arrondissement,75,,,75116000EV0054,,,151,28.73,,,,,,,,,1,3,Dépendance,,0,,,,,,2.281176,48.873789
2016-1256490,2016-01-29,000001,Vente,2020000,1,,RUE MARBEAU,5991,75016,75116,Paris 16e Arrondissement,75,,,75116000EV0054,,,154,7.19,,,,,,,,,1,3,Dépendance,,0,,,,,,2.281176,48.873789
2016-1256491,2016-02-01,000001,Vente,1500000,15,,RUE LEROUX,5603,75016,75116,Paris 16e Arrondissement,75,,,75116000FD0008,,,11,137.37,37,,,,,,,,2,2,Appartement,118,4,,,,,,2.286422,48.871616
2016-1256491,2016-02-01,000001,Vente,1500000,15,,RUE LEROUX,5603,75016,75116,Paris 16e Arrondissement,75,,,75116000FD0008,,,24,11.9,,,,,,,,,1,3,Dépendance,,0,,,,,,2.286422,48.871616
2016-1256491,2016-02-01,000001,Vente,1500000,64,,AV VICTOR HUGO,9761,75016,75116,Paris 16e Arrondissement,75,,,75116000FE0068,,,22,,,,,,,,,,1,3,Dépendance,,0,,,,,,2.28641,48.870629
2016-1256491,2016-02-01,000001,Vente,1500000,64,,AV VICTOR HUGO,9761,75016,75116,Paris 16e Arrondissement,75,,,75116000FE0068,,,23,,,,,,,,,,1,3,Dépendance,,0,,,,,,2.28641,48.870629
2016-1256492,2016-01-15,000001,Vente,815000,25,,RUE PAUL VALERY,7186,75016,75116,Paris 16e Arrondissement,75,,,75116000FE0027,,,11,82.7,96,,,,,,,,2,2,Appartement,90,3,,,,,,2.289086,48.870707
2016-1256493,2016-02-02,000001,Vente,160000,17,,RUE DES PERCHAMPS,7246,75016,75116,Paris 16e Arrondissement,75,,,75116000BX0015,,,131,25.58,,,,,,,,,1,2,Appartement,15,1,,,,,,2.267074,48.848838
2016-1256494,2016-01-11,000001,Vente,110000,38,,AV PDT WILSON,7804,75016,75116,Paris 16e Arrondissement,75,,,75116000FR0021,,,13,,,,,,,,,,1,3,Dépendance,,0,,,,,,2.289424,48.863994
2016-1256495,2016-02-03,000001,Vente,368600,11,,RUE SAINT DIDIER,8527,75016,75116,Paris 16e Arrondissement,75,,,75116000FL0119,,,25,38.69,43,,,,,,,,2,2,Appartement,37,2,,,,,,2.288032,48.866013
2016-1256496,2016-01-23,000001,Vente,115000,25,,RUE DU GAL DELESTRAINT,4029,75016,75116,Paris 16e Arrondissement,75,,,75116000AV0036,,,241,,,,,,,,,,1,3,Dépendance,,0,,,,,,2.258358,48.841836
2016-1256497,2016-01-21,000001,Vente,78000,131,,RUE DU RANELAGH,8029,75016,75116,Paris 16e Arrondissement,75,,,75116000CP0016,,,10,,,,,,,,,,1,2,Appartement,14,1,,,,,,2.267049,48.856065
2016-1256498,2016-01-25,000001,Vente,50000,10,,RUE ALBERIC MAGNARD,0112,75016,75116,Paris 16e Arrondissement,75,,,75116000DG0051,,,64,,,,,,,,,,1,3,Dépendance,,0,,,,,,2.271962,48.860846
2016-1256499,2016-01-28,000001,Vente,760000,67,,BD SUCHET,9107,75016,75116,Paris 16e Arrondissement,75,,,75116000BO0010,,,107,,147,91.08,,,,,,,2,2,Appartement,91,4,,,,,,2.26153,48.851383
2016-1256500,2016-01-27,000001,Vente,594020,38,,RUE DES SABLONS,8450,75016,75116,Paris 16e Arrondissement,75,,,75116000DV0045,,,1,,,,,,,,,,1,2,Appartement,73,3,,,,,,2.281825,48.864157
2016-1256501,2016-02-01,000001,Vente,400000,14,,RUE DES SABLONS,8450,75016,75116,Paris 16e Arrondissement,75,,,75116000DW0133,,,550,,,,,,,,,,1,3,Dépendance,,0,,,,,,2.283129,48.866623
2016-1256501,2016-02-01,000001,Vente,400000,14,,RUE DES SABLONS,8450,75016,75116,Paris 16e Arrondissement,75,,,75116000DW0133,,,1111,42.05,434,,,,,,,,2,2,Appartement,42,2,,,,,,2.283129,48.866623
2016-1256502,2016-02-04,000001,Vente,480000,33,,RUE DE LUBECK,5832,75016,75116,Paris 16e Arrondissement,75,,,75116000FQ0006,,,46,,48,,,,,,,,2,2,Appartement,101,3,,,,,,2.291426,48.864566
2016-1256503,2016-01-22,000001,Vente,70000,5,,RUE CHALGRIN,1690,75016,75116,Paris 16e Arrondissement,75,,,75116000FA0106,,,42,8.77,,,,,,,,,1,3,Dépendance,,0,,,,,,2.288948,48.874359
2016-1256504,2016-02-09,000001,Vente,1132800,19,,AV BUGEAUD,1373,75016,75116,Paris 16e Arrondissement,75,,,75116000DY0012,,,194,,,,,,,,,,1,3,Dépendance,,0,,,,,,2.282131,48.869949
2016-1256504,2016-02-09,000001,Vente,1132800,19,,AV BUGEAUD,1373,75016,75116,Paris 16e Arrondissement,75,,,75116000DY0012,,,48,,6,129.05,,,,,,,2,2,Appartement,146,4,,,,,,2.282131,48.869949
2016-1256505,2016-02-03,000001,Vente,278400,57,,RUE DE PASSY,7087,75016,75116,Paris 16e Arrondissement,75,,,75116000CI0124,,,681,34.5,,,,,,,,,1,2,Appartement,35,1,,,,,,2.278847,48.857486
2016-1256506,2016-02-05,000001,Vente,180000,47,,RUE SCHEFFER,8872,75016,75116,Paris 16e Arrondissement,75,,,75116000DJ0016,,,21,24.72,,,,,,,,,1,3,Dépendance,,0,,,,,,2.280733,48.862797
2016-1256507,2016-02-02,000001,Vente,2090000,138,,AV VICTOR HUGO,9761,75016,75116,Paris 16e Arrondissement,75,,,75116000EA0033,,,27,,28,,4,271.82,,,,,3,2,Appartement,590,0,,,,,,2.279282,48.867524
2016-1256508,2016-02-03,000001,Vente,424600,25,,BD LANNES,5327,75016,75116,Paris 16e Arrondissement,75,,,75116000EG0011,,,3,46.61,,,,,,,,,1,2,Appartement,46,2,,,,,,2.272907,48.867674
2016-1256509,2016-01-29,000001,Vente,807000,16,,RUE EUGENE DELACROIX,3409,75016,75116,Paris 16e Arrondissement,75,,,75116000DJ0107,,,63,,,,,,,,,,1,3,Dépendance,,0,,,,,,2.277249,48.862775
2016-1256509,2016-01-29,000001,Vente,807000,16,,RUE EUGENE DELACROIX,3409,75016,75116,Paris 16e Arrondissement,75,,,75116000DJ0107,,,10,,20,88.83,,,,,,,2,2,Appartement,87,4,,,,,,2.277249,48.862775
2016-1256510,2016-01-20,000001,Vente,92000,88,,AV RAYMOND POINCARE,8059,75016,75116,Paris 16e Arrondissement,75,,,75116000FE0007,,,21,9.95,,,,,,,,,1,3,Dépendance,,0,,,,,,2.285586,48.870455
2016-1256511,2016-01-25,000001,Vente,675800,45,,RUE HENRI HEINE,4563,75016,75116,Paris 16e Arrondissement,75,,,75116000BS0066,,,5,76.64,,,,,,,,,1,2,Appartement,81,3,,,,,,2.264915,48.852656
2016-1256512,2016-01-29,000001,Vente,890000,63,,AV LA GRANDE ARMEE,4271,75016,75116,Paris 16e Arrondissement,75,,,75116000EZ0005,,,21,,,,,,,,,,1,2,Appartement,99,4,,,,,,2.286591,48.876019
2016-1256512,2016-01-29,000001,Vente,890000,63,,AV LA GRANDE ARMEE,4271,75016,75116,Paris 16e Arrondissement,75,,,75116000EZ0005,,,14,102.4,,,,,,,,,1,2,Appartement,99,4,,,,,,2.286591,48.876019
2016-1256513,2016-02-03,000001,Vente,893000,34,,RUE FELICIEN DAVID,3545,75016,75116,Paris 16e Arrondissement,75,,,75116000BY0009,,,32,103.27,8,,,,,,,,2,2,Appartement,120,3,,,,,,2.273112,48.848548
2016-1256513,2016-02-03,000001,Vente,893000,34,,RUE FELICIEN DAVID,3545,75016,75116,Paris 16e Arrondissement,75,,,75116000BY0009,,,35,9.45,,,,,,,,,1,3,Dépendance,,0,,,,,,2.273112,48.848548
2016-1256514,2016-02-10,000001,Vente,75000,19,,BD DELESSERT,2674,75016,75116,Paris 16e Arrondissement,75,,,75116000CG0009,,,17,7.82,,,,,,,,,1,3,Dépendance,,0,,,,,,2.286074,48.858513
2016-1256515,2016-02-05,000001,Vente,101000,2,,RUE OCTAVE FEUILLET,6864,75016,75116,Paris 16e Arrondissement,75,,,75116000DG0035,,,2,9.82,,,,,,,,,1,3,Dépendance,,0,,,,,,2.273406,48.860987
2016-1256516,2016-01-26,000001,Vente,50000,5,,VLA FAISANDERIE,3488,75016,75116,Paris 16e Arrondissement,75,,,75116000EE0064,,,50,11.7,,,,,,,,,1,2,Appartement,10,1,,,,,,2.275685,48.869823
2016-1256516,2016-01-26,000001,Vente,50000,5,,VLA FAISANDERIE,3488,75016,75116,Paris 16e Arrondissement,75,,,75116000EE0064,,,51,11.6,,,,,,,,,1,2,Appartement,10,1,,,,,,2.275685,48.869823
2016-1256516,2016-01-26,000001,Vente,50000,5,,VLA FAISANDERIE,3488,75016,75116,Paris 16e Arrondissement,75,,,75116000EE0064,,,2,,,,,,,,,,1,3,Dépendance,,0,,,,,,2.275685,48.869823
2016-1256517,2016-01-18,000001,Vente,36000,7,,RUE DE MONTEVIDEO,6490,75016,75116,Paris 16e Arrondissement,75,,,75116000ED0037,,,110,,,,,,,,,,1,3,Dépendance,,0,,,,,,2.274444,48.867602
2016-1256518,2016-01-26,000001,Vente,560000,28,,RUE PARENT DE ROSAN,7063,75016,75116,Paris 16e Arrondissement,75,,,75116000AV0082,,,23,,,,,,,,,,1,3,Dépendance,,0,,,,,,2.259956,48.840664
2016-1256518,2016-01-26,000001,Vente,560000,28,,RUE PARENT DE ROSAN,7063,75016,75116,Paris 16e Arrondissement,75,,,75116000AV0082,,,71,24.56,,,,,,,,,1,2,Appartement,25,1,,,,,,2.259956,48.840664
2016-1256518,2016-01-26,000001,Vente,560000,28,,RUE PARENT DE ROSAN,7063,75016,75116,Paris 16e Arrondissement,75,,,75116000AV0082,,,95,24.42,,,,,,,,,1,2,Appartement,25,1,,,,,,2.259956,48.840664
2016-1256518,2016-01-26,000001,Vente,560000,28,,RUE PARENT DE ROSAN,7063,75016,75116,Paris 16e Arrondissement,75,,,75116000AV0082,,,54,,,,,,,,,,1,3,Dépendance,,0,,,,,,2.259956,48.840664
2016-1256518,2016-01-26,000001,Vente,560000,28,,RUE PARENT DE ROSAN,7063,75016,75116,Paris 16e Arrondissement,75,,,75116000AV0082,,,3,,,,,,,,,,1,3,Dépendance,,0,,,,,,2.259956,48.840664
2016-1256518,2016-01-26,000001,Vente,560000,28,,RUE PARENT DE ROSAN,7063,75016,75116,Paris 16e Arrondissement,75,,,75116000AV0082,,,100,15.98,,,,,,,,,1,2,Appartement,16,1,,,,,,2.259956,48.840664
2016-1256518,2016-01-26,000001,Vente,560000,23,,RUE DECAMPS,2632,75016,75116,Paris 16e Arrondissement,75,,,75116000DV0052,,,22,41.4,39,,,,,,,,2,2,Appartement,40,1,,,,,,2.280994,48.864325
2016-1256518,2016-01-26,000001,Vente,560000,23,,RUE DECAMPS,2632,75016,75116,Paris 16e Arrondissement,75,,,75116000DV0052,,,52,,,,,,,,,,1,3,Dépendance,,0,,,,,,2.280994,48.864325
2016-1256519,2016-01-19,000001,Vente,289000,36,,RUE DE LONGCHAMP,5744,75016,75116,Paris 16e Arrondissement,75,,,75116000FL0080,,,22,,43,,,,,,,,2,2,Appartement,27,1,,,,,,2.289685,48.865207
2016-1256520,2016-01-21,000001,Vente,,15,,PL TROCADERO ET 11 NOVEMBRE,9452,75016,75116,Paris 16e Arrondissement,75,,,75116000DR0005,,1,,,,,,,,,,,0,,,,,,,,,,2.287934,48.861947
2016-1256520,2016-01-21,000001,Vente,,17,P,PL TROCADERO ET 11 NOVEMBRE,9452,75016,75116,Paris 16e Arrondissement,75,,,75116000DR0007,,,,,,,,,,,,,0,,,,,S,sols,,,3,2.287024,48.86103
2016-1256520,2016-01-21,000001,Vente,,17,P,PL TROCADERO ET 11 NOVEMBRE,9452,75016,75116,Paris 16e Arrondissement,75,,,75116000DR0008,,,,,,,,,,,,,0,,,,,S,sols,,,3,2.287236,48.860685
2016-1256520,2016-01-21,000001,Vente,,1,,PL TROCADERO ET 11 NOVEMBRE,9452,75016,75116,Paris 16e Arrondissement,75,,,75116000FR0052,,1,,,,,,,,,,,0,,,,,,,,,,2.289365,48.862883
2016-1256520,2016-01-21,000001,Vente,,13,,PL TROCADERO ET 11 NOVEMBRE,9452,75016,75116,Paris 16e Arrondissement,75,,,75116000FR0057,,1,,,,,,,,,,,0,,,,,,,,,,2.288695,48.862516
2016-1256520,2016-01-21,000001,Vente,,1,P,PL TROCADERO ET 11 NOVEMBRE,9452,75016,75116,Paris 16e Arrondissement,75,,,75116000FR0061,,,,,,,,,,,,,0,,,,,S,sols,,,33,2.290809,48.86293
2016-1256520,2016-01-21,000001,Vente,,1,P,PL TROCADERO ET 11 NOVEMBRE,9452,75016,75116,Paris 16e Arrondissement,75,,,75116000FR0062,,,,,,,,,,,,,0,,,,,S,sols,,,4,2.289185,48.863134
2016-1256520,2016-01-21,000001,Vente,,1,P,PL TROCADERO ET 11 NOVEMBRE,9452,75016,75116,Paris 16e Arrondissement,75,,,75116000FR0063,,,,,,,,,,,,,0,,,,,S,sols,,,7,2.290766,48.863251
2016-1256520,2016-01-21,000001,Vente,,1,P,PL TROCADERO ET 11 NOVEMBRE,9452,75016,75116,Paris 16e Arrondissement,75,,,75116000FR0064,,,,,,,,,,,,,0,,,,,S,sols,,,4,2.29088,48.863257
2016-1256520,2016-01-21,000001,Vente,,1,P,PL TROCADERO ET 11 NOVEMBRE,9452,75016,75116,Paris 16e Arrondissement,75,,,75116000FR0065,,,,,,,,,,,,,0,,,,,S,sols,,,10,2.290638,48.862965
2016-1256520,2016-01-21,000001,Vente,,1,P,PL TROCADERO ET 11 NOVEMBRE,9452,75016,75116,Paris 16e Arrondissement,75,,,75116000FR0066,,,,,,,,,,,,,0,,,,,S,sols,,,24,2.290316,48.863095
2016-1256520,2016-01-21,000001,Vente,,1,P,PL TROCADERO ET 11 NOVEMBRE,9452,75016,75116,Paris 16e Arrondissement,75,,,75116000FR0067,,,,,,,,,,,,,0,,,,,S,sols,,,269,2.288783,48.863056
2016-1256520,2016-01-21,000001,Vente,,1,P,PL TROCADERO ET 11 NOVEMBRE,9452,75016,75116,Paris 16e Arrondissement,75,,,75116000FR0068,,,,,,,,,,,,,0,,,,,S,sols,,,7,2.289107,48.862553
2016-1256521,2016-02-03,000001,Vente,80000,51,,RUE SPONTINI,9059,75016,75116,Paris 16e Arrondissement,75,,,75116000ED0102,,,31,8.44,,,,,,,,,1,3,Dépendance,,0,,,,,,2.276852,48.866962
2016-1256522,2016-02-12,000001,Vente,100000,40,,RUE SCHEFFER,8872,75016,75116,Paris 16e Arrondissement,75,,,75116000DT0026,,,10,9.44,,,,,,,,,1,3,Dépendance,,0,,,,,,2.281912,48.86243
2016-1256523,2016-01-29,000001,Vente,734000,6,,RUE PIERRE GUERIN,7439,75016,75116,Paris 16e Arrondissement,75,,,75116000BX0008,,,5,68.35,,,,,,,,,1,2,Appartement,64,3,,,,,,2.266716,48.848087
2016-1256524,2016-01-27,000001,Vente,465000,14,,RUE DES SABLONS,8450,75016,75116,Paris 16e Arrondissement,75,,,75116000DW0133,,,493,,,,,,,,,,1,3,Dépendance,,0,,,,,,2.283129,48.866623
2016-1256524,2016-01-27,000001,Vente,465000,14,,RUE DES SABLONS,8450,75016,75116,Paris 16e Arrondissement,75,,,75116000DW0133,,,1112,46.71,435,,,,,,,,2,2,Appartement,47,2,,,,,,2.283129,48.866623
2016-1256525,2016-01-19,000001,Vente,50000,28,,AV MOZART,6626,75016,75116,Paris 16e Arrondissement,75,,,75116000CN0027,,,270,,,,,,,,,,1,3,Dépendance,,0,,,,,,2.271332,48.856864
2016-1256526,2016-02-04,000001,Vente,42500,56,,RUE DOCTEUR BLANCHE,2817,75016,75116,Paris 16e Arrondissement,75,,,75116000BS0005,,,81,,,,,,,,,,1,3,Dépendance,,0,,,,,,2.264148,48.852462
2016-1256527,2016-01-22,000001,Vente,50000,125,,RUE MICHEL ANGE,6324,75016,75116,Paris 16e Arrondissement,75,,,75116000AS0024,,,106,,,,,,,,,,1,2,Appartement,8,1,,,,,,2.258268,48.839402
2016-1256528,2016-01-25,000001,Vente,736000,26,,RUE DE L YVETTE,9990,75016,75116,Paris 16e Arrondissement,75,,,75116000BT0012,,,1,62.25,223,,,,,,,,2,2,Appartement,64,2,,,,,,2.266684,48.853808
2016-1256529,2016-02-02,000001,Vente,132000,22,,RUE DE CHAILLOT,1680,75016,75116,Paris 16e Arrondissement,75,,,75116000FO0062,,,9,12.6,,,,,,,,,1,3,Dépendance,,0,,,,,,2.298013,48.86749
2016-1256530,2016-01-27,000001,Echange,47000,23,,AV DE LAMBALLE,5294,75016,75116,Paris 16e Arrondissement,75,,,75116000CE0032,,,46,,,,,,,,,,1,3,Dépendance,,0,,,,,,2.279773,48.854325
2016-1256530,2016-01-27,000002,Echange,47000,23,,AV DE LAMBALLE,5294,75016,75116,Paris 16e Arrondissement,75,,,75116000CE0032,,,53,,,,,,,,,,1,3,Dépendance,,0,,,,,,2.279773,48.854325
2016-1256531,2016-01-18,000001,Vente,875000,144,,BD EXELMANS,3465,75016,75116,Paris 16e Arrondissement,75,,,75116000AZ0019,,,27,90.04,7,,,,,,,,2,2,Appartement,92,4,,,,,,2.25992,48.84771
2016-1256532,2016-02-02,000001,Vente,1380000,62,,RUE SAINT DIDIER,8527,75016,75116,Paris 16e Arrondissement,75,,,75116000DX0076,,,7,,86,138.8,,,,,,,2,2,Appartement,139,5,,,,,,2.282583,48.867726
2016-1256532,2016-02-02,000001,Vente,1380000,62,,RUE SAINT DIDIER,8527,75016,75116,Paris 16e Arrondissement,75,,,75116000DX0076,,,74,,,,,,,,,,1,3,Dépendance,,0,,,,,,2.282583,48.867726
2016-1256533,2016-02-01,000001,Vente,600000,14,,RUE COPERNIC,2308,75016,75116,Paris 16e Arrondissement,75,,,75116000FK0044,,,18,,3,53.8,,,,,,,2,2,Appartement,54,3,,,,,,2.290301,48.869232
2016-1256534,2016-01-29,000001,Vente,495000,43,,AV DE VERSAILLES,9706,75016,75116,Paris 16e Arrondissement,75,,,75116000CA0040,,,24,55.7,,,,,,,,,1,2,Appartement,58,2,,,,,,2.275504,48.84877
2016-1256535,2016-02-05,000001,Vente,90000,136,,BD SUCHET,9107,75016,75116,Paris 16e Arrondissement,75,,,75116000BP0001,,,2135,,,,,,,,,,1,3,Dépendance,,0,,,,,,2.258697,48.848963
2016-1256535,2016-02-05,000001,Vente,90000,136,,BD SUCHET,9107,75016,75116,Paris 16e Arrondissement,75,,,75116000BP0001,,,2134,,,,,,,,,,1,3,Dépendance,,0,,,,,,2.258697,48.848963
2016-1256536,2016-01-21,000001,Vente,20000,45,,RUE BOILEAU,1058,75016,75116,Paris 16e Arrondissement,75,,,75116000AP0080,,,326,,,,,,,,,,1,3,Dépendance,,0,,,,,,2.26387,48.844055
2016-1256537,2016-02-10,000001,Vente,107500,15,,AV DU COL BONNET,2199,75016,75116,Paris 16e Arrondissement,75,,,75116000CJ0015,,,15,9.04,,,,,,,,,1,3,Dépendance,,0,,,,,,2.277781,48.8556
2016-1256538,2016-01-21,000001,Vente,700,6,,SQ THIERS,9277,75016,75116,Paris 16e Arrondissement,75,,,75116000EB0026,,,14,8,27,,,,,,,,2,3,Dépendance,,0,,,,,,2.278567,48.866223
2016-1256539,2016-02-01,000001,Vente,624150,8,,RUE PICCINI,7397,75016,75116,Paris 16e Arrondissement,75,,,75116000FA0033,,,11,66.5,31,,,,,,,,2,2,Appartement,66,2,,,,,,2.285402,48.874132
2016-1256540,2016-02-04,000001,Vente,665000,37,,RUE DAVIOUD,2606,75016,75116,Paris 16e Arrondissement,75,,,75116000CL0021,,,64,71.94,66,,,,,,,,2,2,Appartement,75,4,,,,,,2.270752,48.854435
2016-1256541,2016-02-04,000002,Vente,350000,37,,RUE DAVIOUD,2606,75016,75116,Paris 16e Arrondissement,75,,,75116000CL0021,,,33,38.82,,,,,,,,,1,2,Appartement,39,3,,,,,,2.270752,48.854435
2016-1256542,2016-02-08,000001,Vente,498940,1,,SQ DE ROCAMADOUR,8280,75016,75116,Paris 16e Arrondissement,75,,,75116000BO0001,,,397,,419,57.21,,,,,,,2,2,Appartement,57,2,,,,,,2.260423,48.851924
2016-1256543,2016-01-28,000001,Vente,100000,74,,RUE DE LA TOUR,9362,75016,75116,Paris 16e Arrondissement,75,,,75116000DK0023,,,71,9.22,,,,,,,,,1,3,Dépendance,,0,,,,,,2.28006,48.861225
2016-1256544,2016-02-04,000001,Vente,40000,10,,RUE SINGER,8989,75016,75116,Paris 16e Arrondissement,75,,,75116000CJ0032,,,40,,,,,,,,,,1,3,Dépendance,,0,,,,,,2.279428,48.855689
2016-1256545,2016-01-22,000001,Vente,40000,72,,RUE DE LA FAISANDERIE,3487,75016,75116,Paris 16e Arrondissement,75,,,75116000ED0035,,,38,,,,,,,,,,1,3,Dépendance,,0,,,,,,2.274772,48.867506
2016-1256546,2016-02-11,000001,Vente en l'état futur d'achèvement,986000,,,,,,75116,Paris 16e Arrondissement,75,,,75116000DW0103,,,3024,,,,,,,,,,1,,,,,,,,,,2.284784,48.866419
2016-1256546,2016-02-11,000001,Vente en l'état futur d'achèvement,986000,3,,RUE DES SABLONS,8450,75016,75116,Paris 16e Arrondissement,75,,,75116000DW0103,,,2033,,,,,,,,,,1,,,,,,,,,,2.284784,48.866419
2016-1256546,2016-02-11,000001,Vente en l'état futur d'achèvement,986000,,,,,,75116,Paris 16e Arrondissement,75,,,75116000DW0103,,,3010,,,,,,,,,,1,,,,,,,,,,2.284784,48.866419
2016-1256547,2016-01-27,000001,Vente,1192200,12,,RUE JEAN RICHEPIN,4945,75016,75116,Paris 16e Arrondissement,75,,,75116000DI0064,,,42,,58,154.16,,,,,,,2,2,Appartement,155,5,,,,,,2.273879,48.861901
2016-1256548,2016-02-05,000001,Vente,350000,33,,AV PIERRE 1ER SERBIE,7471,75016,75116,Paris 16e Arrondissement,75,,,75116000FO0057,,,2,23.81,20,,21,,22,,23,,9,2,Appartement,24,2,,,,,,2.298732,48.86746
2016-1256549,2016-01-15,000001,Vente,650000,6,,RUE EUGENE LABICHE,3419,75016,75116,Paris 16e Arrondissement,75,,,75116000DH0010,,,5,71.28,,,,,,,,,1,2,Appartement,70,3,,,,,,2.271482,48.862961
2016-1256550,2016-01-29,000001,Vente,1207000,119,,AV MOZART,6626,75016,75116,Paris 16e Arrondissement,75,,,75116000BW0052,,,111,124.1,112,,152,,154,,,,4,2,Appartement,124,5,,,,,,2.267282,48.850214
2016-1256551,2016-02-10,000001,Vente,1045800,21,,RUE FRANCOIS GERARD,3799,75016,75116,Paris 16e Arrondissement,75,,,75116000BY0017,,,195,,28,,469,92.4,470,,,,4,2,Appartement,93,3,,,,,,2.272133,48.849151
2016-1256551,2016-02-10,000001,Vente,1045800,21,,RUE FRANCOIS GERARD,3799,75016,75116,Paris 16e Arrondissement,75,,,75116000BY0017,,,309,,,,,,,,,,1,3,Dépendance,,0,,,,,,2.272133,48.849151
2016-1256552,2016-02-10,000001,Vente,67000,5,,AV ST HONORE D EYLAU,8637,75016,75116,Paris 16e Arrondissement,75,,,75116000FK0113,,,430,7.74,,,,,,,,,1,2,Appartement,16,0,,,,,,2.286727,48.867548
2016-1256553,2016-02-08,000001,Vente,900000,35,,RUE PARENT DE ROSAN,7063,75016,75116,Paris 16e Arrondissement,75,,,75116000AS0027,,,279,,,,,,,,,,1,3,Dépendance,,0,,,,,,2.258792,48.840436
2016-1256553,2016-02-08,000001,Vente,900000,88,B,RUE MICHEL ANGE,6324,75016,75116,Paris 16e Arrondissement,75,,,75116000AV0049,,,17,,,,,,,,,,1,2,Appartement,101,4,,,,,,2.25818,48.84113
2016-1256554,2016-01-29,000001,Vente,40000,10,,RUE SINGER,8989,75016,75116,Paris 16e Arrondissement,75,,,75116000CJ0032,,,48,,,,,,,,,,1,3,Dépendance,,0,,,,,,2.279428,48.855689
2016-1256555,2016-02-03,000001,Vente,100000,129,,RUE DE LA POMPE,7587,75016,75116,Paris 16e Arrondissement,75,,,75116000EB0038,,,29,10.86,,,,,,,,,1,3,Dépendance,,0,,,,,,2.279744,48.866463
2016-1256556,2016-01-29,000001,Vente,55000,43,,RUE FRANCOIS GERARD,3799,75016,75116,Paris 16e Arrondissement,75,,,75116000BY0002,,,22,,,,,,,,,,1,3,Dépendance,,0,,,,,,2.271076,48.848409
2016-1256557,2016-01-29,000001,Vente,800000,19,,RUE POUSSIN,7774,75016,75116,Paris 16e Arrondissement,75,,,75116000BQ0123,,,4,86.04,,,,,,,,,1,2,Appartement,87,4,,,,,,2.263321,48.848531
2016-1256558,2016-01-20,000001,Vente,600000,65,,RUE JEAN DE LA FONTAINE,5249,75016,75116,Paris 16e Arrondissement,75,,,75116000BX0019,,,129,,30,62.69,,,,,,,2,2,Appartement,62,3,,,,,,2.267644,48.849275
2016-1256559,2016-01-28,000001,Vente,451010,30,,BD EXELMANS,3465,75016,75116,Paris 16e Arrondissement,75,,,75116000AR0024,,,6,53.37,,,,,,,,,1,2,Appartement,56,3,,,,,,2.2648,48.841403
2016-1256560,2016-01-28,000001,Vente,1060000,137,,RUE DE LA TOUR,9362,75016,75116,Paris 16e Arrondissement,75,,,75116000DI0089,,,18,112.38,94,,,,,,,,2,2,Appartement,110,4,,,,,,2.273025,48.863375
2016-1256561,2016-01-29,000001,Vente,345000,55,,AV DE VERSAILLES,9706,75016,75116,Paris 16e Arrondissement,75,,,75116000BY0033,,,12,,30,52.49,,,,,,,2,2,Appartement,51,2,,,,,,2.2743,48.847623
2016-1256562,2016-01-28,000001,Vente,564000,12,,RUE PERGOLESE,7263,75016,75116,Paris 16e Arrondissement,75,,,75116000EZ0007,,,31,,50,70.55,,,,,,,2,2,Appartement,70,4,,,,,,2.284939,48.875843
2016-1256563,2016-02-16,000001,Vente,100000,16,,RUE SPONTINI,9059,75016,75116,Paris 16e Arrondissement,75,,,75116000DZ0018,,,45,,,,,,,,,,1,3,Dépendance,,0,,,,,,2.278172,48.870686
2016-1256563,2016-02-16,000001,Vente,100000,16,,RUE SPONTINI,9059,75016,75116,Paris 16e Arrondissement,75,,,75116000DZ0018,,,43,,,,,,,,,,1,3,Dépendance,,0,,,,,,2.278172,48.870686
2016-1256563,2016-02-16,000001,Vente,100000,16,,RUE SPONTINI,9059,75016,75116,Paris 16e Arrondissement,75,,,75116000DZ0018,,,44,,,,,,,,,,1,3,Dépendance,,0,,,,,,2.278172,48.870686
2016-1256564,2016-02-11,000001,Vente,921500,52,,RUE DU GAL DELESTRAINT,4029,75016,75116,Paris 16e Arrondissement,75,,,75116000AV0006,,,18,99.48,23,,,,,,,,2,2,Appartement,102,4,,,,,,2.256828,48.840717
2016-1256565,2016-01-29,000001,Vente,85000,123,,RUE DE LA FAISANDERIE,3487,75016,75116,Paris 16e Arrondissement,75,,,75116000EC0059,,,10,10.9,,,,,,,,,1,2,Appartement,11,1,,,,,,2.27401,48.865454
2016-1256566,2016-01-29,000001,Vente,732050,28,,RUE LE SUEUR,5622,75016,75116,Paris 16e Arrondissement,75,,,75116000FA0079,,,20,85.04,,,,,,,,,1,2,Appartement,85,3,,,,,,2.287434,48.87563
2016-1256567,2016-02-18,000001,Vente,39000,1,,RUE DES BAUCHES,0722,75016,75116,Paris 16e Arrondissement,75,,,75116000CK0067,,,40,,,,,,,,,,1,3,Dépendance,,0,,,,,,2.274594,48.855322
2016-1256568,2016-02-05,000001,Vente,835000,31,,RUE FRESNEL,3862,75016,75116,Paris 16e Arrondissement,75,,,75116000FT0003,,,8,80.08,,,,,,,,,1,2,Appartement,80,4,,,,,,2.293098,48.862609
2016-1256569,2016-02-01,000001,Vente,1056000,21,,RUE SPONTINI,9059,75016,75116,Paris 16e Arrondissement,75,,,75116000DZ0030,,,36,103.57,69,,,,,,,,2,2,Appartement,104,3,,,,,,2.278179,48.869278
2016-1256570,2016-01-26,000001,Echange,100,34,,RUE SPONTINI,9059,75016,75116,Paris 16e Arrondissement,75,,,75116000EE0024,,,12,,,,,,,,,,1,2,Appartement,80,3,,,,,,2.277528,48.868901
2016-1256570,2016-01-26,000002,Echange,100,34,,RUE SPONTINI,9059,75016,75116,Paris 16e Arrondissement,75,,,75116000EE0024,,,10,,,,,,,,,,1,2,Appartement,43,2,,,,,,2.277528,48.868901
2016-1256571,2016-02-01,000001,Vente,20000,22,,RUE GEORGES BIZET,4123,75016,75116,Paris 16e Arrondissement,75,,,75116000FO0019,,,117,,,,,,,,,,1,3,Dépendance,,0,,,,,,2.297233,48.867874
2016-1256572,2016-02-02,000001,Vente,316000,21,,RUE PIERRE GUERIN,7439,75016,75116,Paris 16e Arrondissement,75,,,75116000BQ0067,,,2,44.07,53,,,,,,,,2,2,Appartement,88,0,,,,,,2.265672,48.849413
2016-1256573,2016-02-09,000001,Vente,240000,8,,RUE CORTAMBERT,2347,75016,75116,Paris 16e Arrondissement,75,,,75116000DJ0017,,,5,34.94,65,,,,,,,,2,2,Appartement,33,1,,,,,,2.280333,48.86267
2016-1256574,2016-02-03,000001,Vente,420000,17,,RUE CHANEZ,1741,75016,75116,Paris 16e Arrondissement,75,,,75116000AZ0047,,,25,46.33,3,,,,,,,,2,2,Appartement,47,2,,,,,,2.260003,48.846584
2016-1256574,2016-02-03,000001,Vente,420000,17,,RUE CHANEZ,1741,75016,75116,Paris 16e Arrondissement,75,,,75116000AZ0047,,,37,,,,,,,,,,1,3,Dépendance,,0,,,,,,2.260003,48.846584
2016-1256575,2016-02-16,000001,Vente,890000,52,,AV MOZART,6626,75016,75116,Paris 16e Arrondissement,75,,,75116000CN0043,,,26,,6,92.33,,,,,,,2,2,Appartement,104,4,,,,,,2.269468,48.855238
2016-1256576,2016-01-26,000001,Vente,47500,8,,RUE CORTAMBERT,2347,75016,75116,Paris 16e Arrondissement,75,,,75116000DJ0017,,,56,,,,,,,,,,1,3,Dépendance,,0,,,,,,2.280333,48.86267
2016-1256577,2016-02-15,000001,Vente,28000,68,,BD EXELMANS,3465,75016,75116,Paris 16e Arrondissement,75,,,75116000AQ0004,,,637,,,,,,,,,,1,3,Dépendance,,0,,,,,,2.261639,48.842888
2016-1256578,2016-01-27,000001,Vente,417000,3,B,RUE DE MONTEVIDEO,6490,75016,75116,Paris 16e Arrondissement,75,,,75116000ED0040,,,39,,6,50.2,,,,,,,2,2,Appartement,60,3,,,,,,2.274832,48.868025
2016-1256579,2016-02-04,000001,Vente,600000,5,,RUE LALO,5283,75016,75116,Paris 16e Arrondissement,75,,,75116000EV0023,,,24,,,,,,,,,,1,2,Appartement,102,5,,,,,,2.280245,48.873648
2016-1256579,2016-02-04,000001,Vente,600000,5,,RUE LALO,5283,75016,75116,Paris 16e Arrondissement,75,,,75116000EV0023,,,39,70.37,,,,,,,,,1,2,Appartement,70,3,,,,,,2.280245,48.873648
2016-1256580,2016-02-01,000001,Vente,878202,18,,RUE LALO,5283,75016,75116,Paris 16e Arrondissement,75,,,75116000EV0042,,,21,,22,,24,,,,,,3,2,Appartement,120,3,,,,,,2.280203,48.874161
2016-1256581,2016-01-27,000001,Vente,210000,6,,RUE DE LA FAISANDERIE,3487,75016,75116,Paris 16e Arrondissement,75,,,75116000ER0005,,,123,,,,,,,,,,1,3,Dépendance,,0,,,,,,2.276901,48.870977
2016-1256581,2016-01-27,000001,Vente,210000,6,,RUE DE LA FAISANDERIE,3487,75016,75116,Paris 16e Arrondissement,75,,,75116000ER0005,,,122,,,,,,,,,,1,3,Dépendance,,0,,,,,,2.276901,48.870977
2016-1256581,2016-01-27,000001,Vente,210000,6,,RUE DE LA FAISANDERIE,3487,75016,75116,Paris 16e Arrondissement,75,,,75116000ER0005,,,124,,,,,,,,,,1,3,Dépendance,,0,,,,,,2.276901,48.870977
2016-1256582,2016-02-16,000001,Vente,685000,52,,AV THEOPHILE GAUTIER,9253,75016,75116,Paris 16e Arrondissement,75,,,75116000BX0037,,,10,84.62,25,,,,,,,,2,2,Appartement,85,3,,,,,,2.27026,48.848986
2016-1256583,2016-02-10,000001,Vente,415000,61,B,AV MOZART,6626,75016,75116,Paris 16e Arrondissement,75,,,75116000BT0070,,,39,51.05,6,,,,,,,,2,2,Appartement,44,3,,,,,,2.26949,48.854153
2016-1256584,2016-01-28,000001,Vente,230000,19,,AV PAUL DOUMER,7149,75016,75116,Paris 16e Arrondissement,75,,,75116000DS0012,,,1058,29.56,,,,,,,,,1,2,Appartement,31,1,,,,,,2.284183,48.860985
2016-1256585,2016-02-10,000001,Vente,301580,20,,RUE BOULAINVILLIERS,1154,75016,75116,Paris 16e Arrondissement,75,,,75116000CD0007,,,100,,22,40.52,,,,,,,2,2,Appartement,35,1,,,,,,2.276096,48.853618
2016-1256586,2016-01-28,000001,Vente,535000,47,,RUE ERLANGER,3320,75016,75116,Paris 16e Arrondissement,75,,,75116000AO0003,,,130,71.51,243,,,,,,,,2,2,Appartement,75,1,,,,,,2.260636,48.845026
2016-1256586,2016-01-28,000001,Vente,535000,47,,RUE ERLANGER,3320,75016,75116,Paris 16e Arrondissement,75,,,75116000AO0003,,,330,,,,,,,,,,1,3,Dépendance,,0,,,,,,2.260636,48.845026
2016-1256587,2016-01-29,000001,Vente,425000,3,,VLA CHANEZ,1742,75016,75116,Paris 16e Arrondissement,75,,,75116000AZ0050,,,121,48.35,,,,,,,,,1,2,Appartement,47,2,,,,,,2.260591,48.847425
2016-1256588,2016-02-12,000001,Vente,55000,153,,AV VICTOR HUGO,9761,75016,75116,Paris 16e Arrondissement,75,,,75116000EB0034,,,97,,,,,,,,,,1,3,Dépendance,,0,,,,,,2.27902,48.866743
2016-1256589,2016-02-08,000001,Vente,200000,14,,AV ALPHAND,0226,75016,75116,Paris 16e Arrondissement,75,,,75116000FA0004,,,8,22.37,,,,,,,,,1,2,Appartement,28,1,,,,,,2.284211,48.874999
2016-1256590,2016-02-09,000001,Vente,1155000,4,,RUE LYAUTEY,5864,75016,75116,Paris 16e Arrondissement,75,,,75116000CH0022,,,29,109.7,32,,,,,,,,2,2,Appartement,77,3,,,,,,2.281861,48.856871
2016-1256590,2016-02-09,000001,Vente,1155000,4,,RUE LYAUTEY,5864,75016,75116,Paris 16e Arrondissement,75,,,75116000CH0022,,,29,109.7,32,,,,,,,,2,2,Appartement,66,0,,,,,,2.281861,48.856871
2016-1256591,2016-02-15,000001,Vente,825000,51,,RUE DE LA TOUR,9362,75016,75116,Paris 16e Arrondissement,75,,,75116000DL0092,,,10,99.4,12,,,,,,,,2,2,Appartement,100,6,,,,,,2.28024,48.860523
2016-1256592,2016-02-04,000001,Vente,90000,52,,AV FOCH,3696,75016,75116,Paris 16e Arrondissement,75,,,75116000ET0027,,,246,,,,,,,,,,1,3,Dépendance,,0,,,,,,2.283709,48.873556
2016-1256593,2016-02-08,000001,Vente,40000,69,,RUE NICOLO,6771,75016,75116,Paris 16e Arrondissement,75,,,75116000DM0054,,,71,4.6,,,,,,,,,1,3,Dépendance,,0,,,,,,2.275744,48.860931
2016-1256594,2016-02-08,000001,Vente,1480000,1,,RUE DU CONSEILLER COLLIGNON,2277,75016,75116,Paris 16e Arrondissement,75,,,75116000DN0003,,,38,,,,,,,,,,1,3,Dépendance,,0,,,,,,2.273589,48.860028
2016-1256594,2016-02-08,000001,Vente,1480000,1,,RUE DU CONSEILLER COLLIGNON,2277,75016,75116,Paris 16e Arrondissement,75,,,75116000DN0003,,,61,10.3,,,,,,,,,1,3,Dépendance,,0,,,,,,2.273589,48.860028
2016-1256594,2016-02-08,000001,Vente,1480000,1,,RUE DU CONSEILLER COLLIGNON,2277,75016,75116,Paris 16e Arrondissement,75,,,75116000DN0003,,,12,,53,157.61,,,,,,,2,2,Appartement,160,5,,,,,,2.273589,48.860028
2016-1256595,2016-02-09,000001,Vente,572000,133,,RUE MICHEL ANGE,6324,75016,75116,Paris 16e Arrondissement,75,,,75116000AS0021,,,41,,6,79.46,,,,,,,2,2,Appartement,79,4,,,,,,2.257883,48.838908
2016-1256596,2016-02-03,000001,Vente,255000,33,B,BD SUCHET,9107,75016,75116,Paris 16e Arrondissement,75,,,75116000CQ0016,,,7,30.68,,,,,,,,,1,2,Appartement,30,2,,,,,,2.265323,48.857744
2016-1256597,2016-02-09,000001,Vente,216000,5,,RUE DAVIOUD,2606,75016,75116,Paris 16e Arrondissement,75,,,75116000CM0084,,,26,18,,,,,,,,,1,2,Appartement,18,1,,,,,,2.271743,48.856011
2016-1256598,2016-02-10,000001,Vente,210000,10,,RUE FRANCOIS MILLET,3803,75016,75116,Paris 16e Arrondissement,75,,,75116000BZ0034,,,29,,6,,,,,,,,2,2,Appartement,63,3,,,,,,2.272833,48.851021
2016-1256598,2016-02-10,000001,Vente,210000,10,,RUE FRANCOIS MILLET,3803,75016,75116,Paris 16e Arrondissement,75,,,75116000BZ0034,,,30,,,,,,,,,,1,2,Appartement,63,3,,,,,,2.272833,48.851021
2016-1256599,2016-02-18,000001,Vente,2900000,15,,RUE ALBERIC MAGNARD,0112,75016,75116,Paris 16e Arrondissement,75,,,75116000DF0016,,,32,8.25,,,,,,,,,1,3,Dépendance,,0,,,,,,2.271578,48.859937
2016-1256599,2016-02-18,000001,Vente,2900000,15,,RUE ALBERIC MAGNARD,0112,75016,75116,Paris 16e Arrondissement,75,,,75116000DF0016,,,3,,4,,49,,70,268.05,,,4,2,Appartement,276,6,,,,,,2.271578,48.859937
2016-1256599,2016-02-18,000001,Vente,2900000,15,,RUE ALBERIC MAGNARD,0112,75016,75116,Paris 16e Arrondissement,75,,,75116000DF0016,,,18,,,,,,,,,,1,3,Dépendance,,0,,,,,,2.271578,48.859937
2016-1256599,2016-02-18,000001,Vente,2900000,15,,RUE ALBERIC MAGNARD,0112,75016,75116,Paris 16e Arrondissement,75,,,75116000DF0016,,,19,,,,,,,,,,1,3,Dépendance,,0,,,,,,2.271578,48.859937
2016-1256600,2016-02-04,000001,Vente,2360000,8,,RUE VINEUSE,9860,75016,75116,Paris 16e Arrondissement,75,,,75116000DP0078,,,,,,,,,,,,,0,2,Appartement,110,2,S,sols,,,158,2.284681,48.859507
2016-1256600,2016-02-04,000001,Vente,2360000,8,,RUE VINEUSE,9860,75016,75116,Paris 16e Arrondissement,75,,,75116000DP0078,,,,,,,,,,,,,0,2,Appartement,102,3,S,sols,,,158,2.284681,48.859507
2016-1256600,2016-02-04,000001,Vente,2360000,8,,RUE VINEUSE,9860,75016,75116,Paris 16e Arrondissement,75,,,75116000DP0078,,,,,,,,,,,,,0,2,Appartement,150,3,S,sols,,,158,2.284681,48.859507
2016-1256601,2016-02-23,000001,Vente,655000,69,,RUE CHARDON LAGACHE,1790,75016,75116,Paris 16e Arrondissement,75,,,75116000AQ0046,,,7,,8,,,,,,,,2,2,Appartement,76,4,,,,,,2.264412,48.84202
2016-1256601,2016-02-23,000001,Vente,655000,69,,RUE CHARDON LAGACHE,1790,75016,75116,Paris 16e Arrondissement,75,,,75116000AQ0046,,,7,,8,,,,,,,,2,2,Appartement,22,0,,,,,,2.264412,48.84202
2016-1256602,2016-02-09,000001,Vente,150000,10,,BD SUCHET,9107,75016,75116,Paris 16e Arrondissement,75,,,75116000DD0001,,,678,,679,,,,,,,,2,3,Dépendance,,0,,,,,,2.266838,48.862212
2016-1256603,2016-02-10,000001,Vente,689000,1,,SQ LA FONTAINE,5250,75016,75116,Paris 16e Arrondissement,75,,,75116000BZ0024,,,116,,124,,146,,,,,,3,2,Appartement,90,4,,,,,,2.272137,48.850786
2016-1256603,2016-02-10,000001,Vente,689000,1,,SQ LA FONTAINE,5250,75016,75116,Paris 16e Arrondissement,75,,,75116000BZ0024,,,116,,124,,146,,,,,,3,3,Dépendance,,0,,,,,,2.272137,48.850786
2016-1256604,2016-01-26,000001,Vente,133420,123,,AV DE VERSAILLES,9706,75016,75116,Paris 16e Arrondissement,75,,,75116000AI0081,,,23,,,,,,,,,,1,2,Appartement,12,1,,,,,,2.270076,48.843408
2016-1256605,2016-02-05,000001,Vente,320000,1,,RUE DES BAUCHES,0722,75016,75116,Paris 16e Arrondissement,75,,,75116000CK0067,,,455,40.88,,,,,,,,,1,2,Appartement,44,1,,,,,,2.274594,48.855322
2016-1256606,2016-02-22,000001,Vente,170000,36,,RUE DE L'AMIRAL HAMELIN,4465,75016,75116,Paris 16e Arrondissement,75,,,75116000FM0055,,,59,22.02,,,,,,,,,1,2,Appartement,52,0,,,,,,2.292128,48.867776
2016-1256607,2016-02-10,000001,Vente,610000,28,,RUE DE L ANNONCIATION,0362,75016,75116,Paris 16e Arrondissement,75,,,75116000CI0035,,,23,68.57,7,,,,,,,,2,2,Appartement,70,2,,,,,,2.279063,48.85714
2016-1256608,2016-02-25,000001,Vente,660000,6,,RUE FRANCISQUE SARCEY,3789,75016,75116,Paris 16e Arrondissement,75,,,75116000DO0043,,,3,91.87,,,,,,,,,1,2,Appartement,95,4,,,,,,2.281389,48.859413
2016-1256608,2016-02-25,000001,Vente,660000,6,,RUE FRANCISQUE SARCEY,3789,75016,75116,Paris 16e Arrondissement,75,,,75116000DO0043,,,3,91.87,,,,,,,,,1,3,Dépendance,,0,,,,,,2.281389,48.859413
2016-1256609,2016-02-16,000001,Vente,80000,46,,RUE DE LA POMPE,7587,75016,75116,Paris 16e Arrondissement,75,,,75116000DL0004,,,1086,,,,,,,,,,1,3,Dépendance,,0,,,,,,2.276278,48.86156
2016-1256610,2016-02-02,000001,Vente,150000,3,,BD EXELMANS,3465,75016,75116,Paris 16e Arrondissement,75,,,75116000AG0030,,,37,23.6,38,,,,,,,,2,2,Appartement,23,2,,,,,,2.266683,48.839619
2016-1256611,2016-02-05,000001,Vente,35000,8,,RUE SINGER,8989,75016,75116,Paris 16e Arrondissement,75,,,75116000CJ0031,,,40,,,,,,,,,,1,3,Dépendance,,0,,,,,,2.279285,48.855485
2016-1256612,2016-02-15,000001,Vente,180000,23,,RUE JEAN GIRAUDOUX,4893,75016,75116,Paris 16e Arrondissement,75,,,75116000FI0029,,,2,21.3,,,,,,,,,1,4,Local industriel. commercial ou assimilé,21,0,,,,,,2.296587,48.869355
2016-1256613,2016-02-06,000001,Vente,500000,27,,RUE DES VIGNES,9799,75016,75116,Paris 16e Arrondissement,75,,,75116000CK0006,,,27,,59,61.1,,,,,,,2,2,Appartement,65,2,,,,,,2.276403,48.855282
2016-1256613,2016-02-06,000001,Vente,500000,27,,RUE DES VIGNES,9799,75016,75116,Paris 16e Arrondissement,75,,,75116000CK0006,,,98,,,,,,,,,,1,3,Dépendance,,0,,,,,,2.276403,48.855282
2016-1256614,2016-02-10,000001,Vente,46800,3,,RUE LA PEROUSE,5336,75016,75116,Paris 16e Arrondissement,75,,,75116000FJ0015,,,40,15.6,,,,,,,,,1,3,Dépendance,,0,,,,,,2.292444,48.868978
2016-1256615,2016-02-02,000001,Vente,725000,28,,RUE GEORGE SAND,4116,75016,75116,Paris 16e Arrondissement,75,,,75116000BW0045,,,53,60.12,,,,,,,,,1,2,Appartement,70,2,,,,,,2.268027,48.850371
2016-1256616,2016-02-16,000001,Vente,112000,3,,RUE LA PEROUSE,5336,75016,75116,Paris 16e Arrondissement,75,,,75116000FJ0015,,,41,18.3,,,,,,,,,1,2,Appartement,22,1,,,,,,2.292444,48.868978
2016-1256617,2016-02-08,000001,Vente,648489.1,127,,RUE MICHEL ANGE,6324,75016,75116,Paris 16e Arrondissement,75,,,75116000AS0024,,,202,,70,73.5,,,,,,,2,2,Appartement,76,3,,,,,,2.258268,48.839402
2016-1256618,2016-02-23,000001,Vente,66000,15,,RUE MESNIL,6288,75016,75116,Paris 16e Arrondissement,75,,,75116000DX0082,,,12,9.69,13,,,,,,,,2,2,Appartement,9,1,,,,,,2.284679,48.868038
2016-1256619,2016-02-05,000001,Vente,576000,25,,RUE FRESNEL,3862,75016,75116,Paris 16e Arrondissement,75,,,75116000FT0010,,,24,,4,54.7,,,,,,,2,2,Appartement,54,3,,,,,,2.293545,48.862854
2016-1256620,2016-02-05,000001,Vente,48000,17,,RUE DE CHAILLOT,1680,75016,75116,Paris 16e Arrondissement,75,,,75116000FO0011,,,47,,,,,,,,,,1,3,Dépendance,,0,,,,,,2.296339,48.867044
2016-1256621,2016-02-08,000001,Vente,8900,5,,RUE ALFRED DEHODENCQ,0176,75016,75116,Paris 16e Arrondissement,75,,,75116000DG0051,,,9,,,,,,,,,,1,3,Dépendance,,0,,,,,,2.271962,48.860846
2016-1256622,2016-02-05,000001,Vente,1180500,7,,RUE OSWALDO CRUZ,6964,75016,75116,Paris 16e Arrondissement,75,,,75116000CO0004,,,118,,119,,120,,7,,,,4,2,Appartement,125,3,,,,,,2.268828,48.856676
2016-1256622,2016-02-05,000001,Vente,1180500,7,,RUE OSWALDO CRUZ,6964,75016,75116,Paris 16e Arrondissement,75,,,75116000CO0004,,,47,,,,,,,,,,1,3,Dépendance,,0,,,,,,2.268828,48.856676
2016-1256623,2016-02-19,000001,Echange,5000,33,,RUE DAVIOUD,2606,75016,75116,Paris 16e Arrondissement,75,,,75116000CL0023,,,26,,,,,,,,,,1,2,Appartement,85,2,,,,,,2.270856,48.854725
2016-1256623,2016-02-19,000002,Echange,5000,33,,RUE DAVIOUD,2606,75016,75116,Paris 16e Arrondissement,75,,,75116000CL0023,,,24,,,,,,,,,,1,2,Appartement,128,5,,,,,,2.270856,48.854725
2016-1256624,2016-02-08,000001,Vente,100000,24,,QUAI LOUIS BLERIOT,5766,75016,75116,Paris 16e Arrondissement,75,,,75116000CA0048,,,28,9.55,,,,,,,,,1,3,Dépendance,,0,,,,,,2.276541,48.849646
2016-1256625,2016-02-12,000001,Vente,620000,29,,RUE GEORGE SAND,4116,75016,75116,Paris 16e Arrondissement,75,,,75116000BW0054,,,39,,6,88.52,,,,,,,2,2,Appartement,92,4,,,,,,2.267473,48.850164
2016-1256625,2016-02-12,000001,Vente,620000,29,,RUE GEORGE SAND,4116,75016,75116,Paris 16e Arrondissement,75,,,75116000BW0054,,,30,,,,,,,,,,1,3,Dépendance,,0,,,,,,2.267473,48.850164
2016-1256626,2016-02-29,000001,Vente,852500,15,,AV PERRICHONT,7290,75016,75116,Paris 16e Arrondissement,75,,,75116000BZ0100,,,8,94.48,,,,,,,,,1,2,Appartement,95,3,,,,,,2.272801,48.84979
2016-1256627,2016-02-04,000001,Vente,80000,88,,RUE CHARDON LAGACHE,1790,75016,75116,Paris 16e Arrondissement,75,,,75116000AR0047,,,25,10.7,,,,,,,,,1,3,Dépendance,,0,,,,,,2.26302,48.840673
2016-1256628,2016-02-19,000001,Vente,250000,38,,AV BUGEAUD,1373,75016,75116,Paris 16e Arrondissement,75,,,75116000ES0003,,,347,29.81,,,,,,,,,1,2,Appartement,31,1,,,,,,2.28029,48.871156
2016-1256629,2016-02-17,000001,Vente,365650,7,,VLA MALAKOFF,5941,75016,75116,Paris 16e Arrondissement,75,,,75116000FL0111,,,23,,7,,,,,,,,2,2,Appartement,34,2,,,,,,2.287511,48.865486
2016-1256630,2016-02-23,000001,Vente,2700000,12,,VLA D EYLAU,3473,75016,75116,Paris 16e Arrondissement,75,,,75116000FC0025,,,,,,,,,,,,,0,1,Maison,235,1,S,sols,,,177,2.288963,48.871818
2016-1256631,2016-02-23,000001,Vente,145000,7,,RUE DE L YVETTE,9990,75016,75116,Paris 16e Arrondissement,75,,,75116000BS0037,,,92,,,,,,,,,,1,3,Dépendance,,0,,,,,,2.267151,48.852715
2016-1256632,2016-02-15,000001,Vente,569250,11,,RUE WILHEM,9966,75016,75116,Paris 16e Arrondissement,75,,,75116000AJ0018,,,37,52.12,95,,,,,,,,2,2,Appartement,52,2,,,,,,2.271149,48.845432
2016-1256632,2016-02-15,000001,Vente,569250,11,,RUE WILHEM,9966,75016,75116,Paris 16e Arrondissement,75,,,75116000AJ0018,,,77,,,,,,,,,,1,3,Dépendance,,0,,,,,,2.271149,48.845432
2016-1256633,2016-02-26,000001,Vente,1002110,55,,AV BUGEAUD,1373,75016,75116,Paris 16e Arrondissement,75,,,75116000DZ0016,,,31,,52,141.28,77,,8,,,,4,2,Appartement,147,0,,,,,,2.277993,48.870926
2016-1256634,2016-02-22,000001,Vente,45000,183,,RUE DE LA POMPE,7587,75016,75116,Paris 16e Arrondissement,75,,,75116000ES0033,,,49,,,,,,,,,,1,3,Dépendance,,0,,,,,,2.282704,48.871305
2016-1256635,2016-02-17,000001,Vente,1000000,5,,RUE DOCTEUR BLANCHE,2817,75016,75116,Paris 16e Arrondissement,75,,,75116000BT0035,,,509,,530,105.14,,,,,,,2,2,Appartement,130,4,,,,,,2.26614,48.855187
2016-1256636,2016-02-17,000001,Vente,1080000,8,,RUE DE VARIZE,9603,75016,75116,Paris 16e Arrondissement,75,,,75116000AV0033,,,41,,,,,,,,,,1,3,Dépendance,,0,,,,,,2.258009,48.841195
2016-1256636,2016-02-17,000001,Vente,1080000,8,,RUE DE VARIZE,9603,75016,75116,Paris 16e Arrondissement,75,,,75116000AV0033,,,107,,39,,,,,,,,2,2,Appartement,79,3,,,,,,2.258009,48.841195
2016-1256637,2016-02-17,000001,Vente,50000,72,,BD EXELMANS,3465,75016,75116,Paris 16e Arrondissement,75,,,75116000AQ0003,,,95,,,,,,,,,,1,3,Dépendance,,0,,,,,,2.261298,48.842972
2016-1256638,2016-02-05,000001,Vente,58500,53,,RUE DE PASSY,7087,75016,75116,Paris 16e Arrondissement,75,,,75116000CI0122,,,13009,,,,,,,,,,1,3,Dépendance,,0,,,,,,2.279559,48.857071
2016-1256639,2016-02-09,000001,Vente,868500,15,,RUE DAUMIER,2587,75016,75116,Paris 16e Arrondissement,75,,,75116000AE0026,,,10,,46,,,,,,,,2,2,Appartement,120,4,,,,,,2.263397,48.839396
2016-1256640,2016-02-25,000001,Vente,710000,51,,AV FOCH,3696,75016,75116,Paris 16e Arrondissement,75,,,75116000ES0031,,,33,74.85,34,,,,,,,,2,2,Appartement,96,3,,,,,,2.282171,48.871661
2016-1256641,2016-02-24,000001,Vente,507000,6,A,RUE D AUTEUIL,0594,75016,75116,Paris 16e Arrondissement,75,,,75116000BX0050,,,2,,50,,,,,,,,2,2,Appartement,66,2,,,,,,2.268511,48.847824
2016-1256642,2016-02-29,000001,Vente,1352657,65,,RUE NICOLO,6771,75016,75116,Paris 16e Arrondissement,75,,,75116000DM0055,,,18,,9,136.1,,,,,,,2,2,Appartement,135,4,,,,,,2.276151,48.860775
2016-1256643,2016-02-04,000001,Vente,688000,4,,RUE DE CIVRY,2061,75016,75116,Paris 16e Arrondissement,75,,,75116000AY0037,,,40,,73,83.29,,,,,,,2,2,Appartement,90,4,,,,,,2.257869,48.843899
2016-1256644,2016-02-10,000001,Vente,900000,21,,RUE GEORGE SAND,4116,75016,75116,Paris 16e Arrondissement,75,,,75116000BW0058,,,9,,,,,,,,,,1,2,Appartement,95,4,,,,,,2.268129,48.849765
2016-1256644,2016-02-10,000001,Vente,900000,21,,RUE GEORGE SAND,4116,75016,75116,Paris 16e Arrondissement,75,,,75116000BW0058,,,9,,,,,,,,,,1,3,Dépendance,,0,,,,,,2.268129,48.849765
2016-1256645,2016-02-18,000001,Vente,633600,32,,AV MOZART,6626,75016,75116,Paris 16e Arrondissement,75,,,75116000CN0032,,,21,78.95,35,,,,,,,,2,2,Appartement,78,3,,,,,,2.270775,48.856376
2016-1256646,2016-02-18,000001,Vente,1361500,3,,BD SUCHET,9107,75016,75116,Paris 16e Arrondissement,75,,,75116000DE0018,,,107,144.87,152,,172,,,,,,3,2,Appartement,150,4,,,,,,2.267249,48.860673
2016-1256647,2016-02-18,000001,Vente,3000,3,,BD SUCHET,9107,75016,75116,Paris 16e Arrondissement,75,,,75116000DE0018,,,172,,,,,,,,,,1,2,Appartement,150,4,,,,,,2.267249,48.860673
2016-1256648,2016-02-08,000001,Vente,14000,79,,RUE DU RANELAGH,8029,75016,75116,Paris 16e Arrondissement,75,,,75116000CL0029,,,93,,,,,,,,,,1,3,Dépendance,,0,,,,,,2.271152,48.855035
2016-1256649,2016-02-05,000001,Vente,615000,33,,AV FOCH,3696,75016,75116,Paris 16e Arrondissement,75,,,75116000FD0013,,,394,,,,,,,,,,1,3,Dépendance,,0,,,,,,2.286709,48.871955
2016-1256649,2016-02-05,000001,Vente,615000,33,,AV FOCH,3696,75016,75116,Paris 16e Arrondissement,75,,,75116000FD0013,,,320,,94,63.7,,,,,,,2,2,Appartement,65,2,,,,,,2.286709,48.871955
2016-1256650,2016-02-10,000001,Vente,250000,35,B,RUE JEAN DE LA FONTAINE,5249,75016,75116,Paris 16e Arrondissement,75,,,75116000BZ0019,,,6,50.05,,,,,,,,,1,2,Appartement,47,3,,,,,,2.271529,48.850601
2016-1256651,2016-02-18,000001,Vente,268000,4,,RUE LEO DELIBES,5521,75016,75116,Paris 16e Arrondissement,75,,,75116000FL0054,,,36,,37,,38,,39,,83,,5,2,Appartement,30,2,,,,,,2.288867,48.866867
2016-1256651,2016-02-18,000001,Vente,268000,4,,RUE LEO DELIBES,5521,75016,75116,Paris 16e Arrondissement,75,,,75116000FL0054,,,71,,,,,,,,,,1,3,Dépendance,,0,,,,,,2.288867,48.866867
2016-1256652,2016-03-01,000001,Vente,540000,51,,AV FOCH,3696,75016,75116,Paris 16e Arrondissement,75,,,75116000ES0031,,,53,37.77,54,,,,,,,,2,2,Appartement,38,1,,,,,,2.282171,48.871661
2016-1256652,2016-03-01,000001,Vente,540000,16,,RUE PICOT,7399,75016,75116,Paris 16e Arrondissement,75,,,75116000ES0032,,,124,,,,,,,,,,1,3,Dépendance,,0,,,,,,2.282825,48.871596
2016-1256653,2016-02-25,000001,Vente,933000,11,,RUE GROS,4345,75016,75116,Paris 16e Arrondissement,75,,,75116000CB0012,,,258,,,,,,,,,,1,3,Dépendance,,0,,,,,,2.276808,48.850941
2016-1256653,2016-02-25,000001,Vente,933000,13,,RUE GROS,4345,75016,75116,Paris 16e Arrondissement,75,,,75116000CB0012,,,134,,57,109.82,,,,,,,2,2,Appartement,109,4,,,,,,2.276808,48.850941
2016-1256654,2016-02-08,000001,Vente,2798500,1,,VLA JOCELYN,4983,75016,75116,Paris 16e Arrondissement,75,,,75116000EB0007,,,111,280.85,,,,,,,,,1,2,Appartement,310,7,,,,,,2.276055,48.865299
2016-1256654,2016-02-08,000001,Vente,2798500,6,,VLA JOCELYN,4983,75016,75116,Paris 16e Arrondissement,75,,,75116000EB0007,,,602,,,,,,,,,,1,3,Dépendance,,0,,,,,,2.276055,48.865299
2016-1256655,2016-02-16,000001,Vente,300000,35,,RUE PARENT DE ROSAN,7063,75016,75116,Paris 16e Arrondissement,75,,,75116000AS0027,,,239,,54,36.21,,,,,,,2,2,Appartement,30,1,,,,,,2.258792,48.840436
2016-1256655,2016-02-16,000001,Vente,300000,35,,RUE PARENT DE ROSAN,7063,75016,75116,Paris 16e Arrondissement,75,,,75116000AS0027,,,323,,,,,,,,,,1,3,Dépendance,,0,,,,,,2.258792,48.840436
2016-1256656,2016-02-12,000001,Vente,64500,55,,RUE DE LA TOUR,9362,75016,75116,Paris 16e Arrondissement,75,,,75116000DL0079,,,37,,,,,,,,,,1,3,Dépendance,,0,,,,,,2.279728,48.860744
2016-1256656,2016-02-12,000001,Vente,64500,55,,RUE DE LA TOUR,9362,75016,75116,Paris 16e Arrondissement,75,,,75116000DL0079,,,36,,,,,,,,,,1,3,Dépendance,,0,,,,,,2.279728,48.860744
2016-1256657,2016-02-29,000001,Vente,1200000,66,,AV VICTOR HUGO,9761,75016,75116,Paris 16e Arrondissement,75,,,75116000FE0011,,,27,137.83,,,,,,,,,1,2,Appartement,135,4,,,,,,2.286172,48.870392
2016-1256657,2016-02-29,000001,Vente,1200000,66,,AV VICTOR HUGO,9761,75016,75116,Paris 16e Arrondissement,75,,,75116000FE0011,,,27,137.83,,,,,,,,,1,3,Dépendance,,0,,,,,,2.286172,48.870392
2016-1256657,2016-02-29,000001,Vente,1200000,66,,AV VICTOR HUGO,9761,75016,75116,Paris 16e Arrondissement,75,,,75116000FE0011,,,27,137.83,,,,,,,,,1,3,Dépendance,,0,,,,,,2.286172,48.870392
2016-1256658,2016-01-19,000001,Vente,1242500,5,,BD SUCHET,9107,75016,75116,Paris 16e Arrondissement,75,,,75116000DE0019,,,12,153.66,31,,,,,,,,2,2,Appartement,163,6,,,,,,2.267186,48.860523
2016-1256658,2016-01-19,000001,Vente,1242500,5,,BD SUCHET,9107,75016,75116,Paris 16e Arrondissement,75,,,75116000DE0019,,,24,,,,,,,,,,1,3,Dépendance,,0,,,,,,2.267186,48.860523
2016-1256659,2016-02-25,000001,Vente,547000,65,,RUE MICHEL ANGE,6324,75016,75116,Paris 16e Arrondissement,75,,,75116000AQ0001,,,166,,,,,,,,,,1,3,Dépendance,,0,,,,,,2.260738,48.843205
2016-1256659,2016-02-25,000001,Vente,547000,76,,BD EXELMANS,3465,75016,75116,Paris 16e Arrondissement,75,,,75116000AQ0001,,,130,,74,66,,,,,,,2,2,Appartement,64,3,,,,,,2.260738,48.843205
2016-1256660,2016-02-25,000001,Vente,125000,33,,AV RAYMOND POINCARE,8059,75016,75116,Paris 16e Arrondissement,75,,,75116000DW0123,,,24,12.37,,,,,,,,,1,3,Dépendance,,0,,,,,,2.285892,48.865597
2016-1256661,2016-02-15,000001,Vente,120000,12,,RUE RAYNOUARD,8066,75016,75116,Paris 16e Arrondissement,75,,,75116000CH0062,,,35,13.01,50,,,,,,,,2,2,Appartement,12,1,,,,,,2.283491,48.85782
2016-1256662,2016-02-23,000001,Vente,910000,11,,RUE DU GAL DELESTRAINT,4029,75016,75116,Paris 16e Arrondissement,75,,,75116000AV0039,,,21,,8,108.8,,,,,,,2,2,Appartement,109,4,,,,,,2.258863,48.842627
2016-1256662,2016-02-23,000001,Vente,910000,11,,RUE DU GAL DELESTRAINT,4029,75016,75116,Paris 16e Arrondissement,75,,,75116000AV0039,,,43,,,,,,,,,,1,3,Dépendance,,0,,,,,,2.258863,48.842627
2016-1256663,2016-02-11,000001,Vente,900000,13,,RUE VINEUSE,9860,75016,75116,Paris 16e Arrondissement,75,,,75116000DP0039,,,112,,12,103.36,,,,,,,2,2,Appartement,105,3,,,,,,2.283734,48.859426
2016-1256664,2016-02-16,000001,Vente,1130000,94,,BD FLANDRIN,3663,75016,75116,Paris 16e Arrondissement,75,,,75116000ER0010,,,1043,123.5,,,,,,,,,1,2,Appartement,123,4,,,,,,2.276294,48.870637
2016-1256665,2016-02-12,000001,Vente,270000,61,B,AV MOZART,6626,75016,75116,Paris 16e Arrondissement,75,,,75116000BT0070,,,4,,40,,,,,,,,2,2,Appartement,36,3,,,,,,2.26949,48.854153
2016-1256666,2016-02-09,000001,Vente,875000,11,,RUE DU GAL DELESTRAINT,4029,75016,75116,Paris 16e Arrondissement,75,,,75116000AV0039,,,18,,4,107.5,,,,,,,2,2,Appartement,108,4,,,,,,2.258863,48.842627
2016-1256666,2016-02-09,000001,Vente,875000,11,,RUE DU GAL DELESTRAINT,4029,75016,75116,Paris 16e Arrondissement,75,,,75116000AV0039,,,44,,,,,,,,,,1,3,Dépendance,,0,,,,,,2.258863,48.842627
2016-1256666,2016-02-09,000001,Vente,875000,11,,RUE DU GAL DELESTRAINT,4029,75016,75116,Paris 16e Arrondissement,75,,,75116000AV0039,,,18,,,,,,,,,,1,2,Appartement,140,5,,,,,,2.258863,48.842627
2016-1256667,2016-02-12,000001,Vente,840000,2,,RUE DEBROUSSE,2628,75016,75116,Paris 16e Arrondissement,75,,,75116000FU0015,,,8,59.81,,,,,,,,,1,2,Appartement,58,3,,,,,,2.299582,48.864434
2016-1256668,2016-02-11,000001,Vente,1000000,70,,RUE JEAN DE LA FONTAINE,5249,75016,75116,Paris 16e Arrondissement,75,,,75116000BW0035,,,5,136.89,,,,,,,,,1,3,Dépendance,,0,,,,,,2.270147,48.850452
2016-1256668,2016-02-11,000001,Vente,1000000,70,,RUE JEAN DE LA FONTAINE,5249,75016,75116,Paris 16e Arrondissement,75,,,75116000BW0035,,,10,,19,,5,136.89,,,,,3,2,Appartement,140,6,,,,,,2.270147,48.850452
2016-1256669,2016-02-17,000001,Vente,520000,105,,AV VICTOR HUGO,9761,75016,75116,Paris 16e Arrondissement,75,,,75116000DX0058,,,8,51,,,,,,,,,1,2,Appartement,53,2,,,,,,2.283578,48.868515
2016-1256670,2016-02-22,000001,Vente,285000,18,,RUE LAURISTON,5401,75016,75116,Paris 16e Arrondissement,75,,,75116000FG0012,,,27,,74,34.48,,,,,,,2,2,Appartement,34,2,,,,,,2.291985,48.871725
2016-1256671,2016-02-18,000001,Vente,32000,68,,RUE LAURISTON,5401,75016,75116,Paris 16e Arrondissement,75,,,75116000FK0036,,,121,,142,10.96,,,,,,,2,3,Dépendance,,0,,,,,,2.289049,48.868938
2016-1256672,2016-02-26,000001,Vente,1142900,95,,RUE DE LONGCHAMP,5744,75016,75116,Paris 16e Arrondissement,75,,,75116000DV0026,,,17,142.67,8,,,,,,,,2,2,Appartement,142,4,,,,,,2.282295,48.865533
2016-1256673,2016-02-23,000001,Vente,969372.5,27,,RUE CHARDON LAGACHE,1790,75016,75116,Paris 16e Arrondissement,75,,,75116000AI0043,,,4,97.5,8,,,,,,,,2,2,Appartement,95,4,,,,,,2.265976,48.84389
2016-1256673,2016-02-23,000001,Vente,969372.5,27,,RUE CHARDON LAGACHE,1790,75016,75116,Paris 16e Arrondissement,75,,,75116000AI0043,,,9,,,,,,,,,,1,3,Dépendance,,0,,,,,,2.265976,48.84389
2016-1256674,2016-02-15,000001,Vente,1385700,72,,AV MOZART,6626,75016,75116,Paris 16e Arrondissement,75,,,75116000BT0054,,,39,,43,,9,135.42,,,,,3,2,Appartement,135,5,,,,,,2.268246,48.853192
2016-1256675,2016-02-29,000001,Vente,2950000,125,A,AV DE MALAKOFF,5939,75016,75116,Paris 16e Arrondissement,75,,,75116000ET0028,,,227,271.1,228,,,,,,,,2,2,Appartement,277,7,,,,,,2.283233,48.874113
2016-1256675,2016-02-29,000001,Vente,2950000,125,A,AV DE MALAKOFF,5939,75016,75116,Paris 16e Arrondissement,75,,,75116000ET0028,,,257,24.7,,,,,,,,,1,3,Dépendance,,0,,,,,,2.283233,48.874113
2016-1256675,2016-02-29,000001,Vente,2950000,125,A,AV DE MALAKOFF,5939,75016,75116,Paris 16e Arrondissement,75,,,75116000ET0028,,,257,24.7,,,,,,,,,1,3,Dépendance,,0,,,,,,2.283233,48.874113
2016-1256676,2016-02-29,000001,Vente,1044120,17,,AV MAL LYAUTEY,6049,75016,75116,Paris 16e Arrondissement,75,,,75116000BO0001,,,570,,578,,594,87.05,,,,,3,2,Appartement,88,4,,,,,,2.260423,48.851924
2016-1256676,2016-02-29,000001,Vente,1044120,136,,BD SUCHET,9107,75016,75116,Paris 16e Arrondissement,75,,,75116000BP0001,,,2035,,,,,,,,,,1,3,Dépendance,,0,,,,,,2.258697,48.848963
2016-1256677,2016-02-17,000001,Vente,221888,56,,RUE DE LA POMPE,7587,75016,75116,Paris 16e Arrondissement,75,,,75116000DL0099,,,272,18.37,,,,,,,,,1,2,Appartement,18,1,,,,,,2.27663,48.862129
2016-1256678,2016-02-11,000001,Vente,1810000,38,,AV BUGEAUD,1373,75016,75116,Paris 16e Arrondissement,75,,,75116000ES0003,,,8,,,,,,,,,,1,3,Dépendance,,0,,,,,,2.28029,48.871156
2016-1256678,2016-02-11,000001,Vente,1810000,38,,AV BUGEAUD,1373,75016,75116,Paris 16e Arrondissement,75,,,75116000ES0003,,,7,,,,,,,,,,1,3,Dépendance,,0,,,,,,2.28029,48.871156
2016-1256678,2016-02-11,000001,Vente,1810000,22,,AV BUGEAUD,1373,75016,75116,Paris 16e Arrondissement,75,,,75116000ES0038,,,4,215.89,,,,,,,,,1,2,Appartement,215,6,,,,,,2.282259,48.870545
2016-1256678,2016-02-11,000001,Vente,1810000,22,,AV BUGEAUD,1373,75016,75116,Paris 16e Arrondissement,75,,,75116000ES0038,,,18,8.62,,,,,,,,,1,3,Dépendance,,0,,,,,,2.282259,48.870545
2016-1256678,2016-02-11,000001,Vente,1810000,22,,AV BUGEAUD,1373,75016,75116,Paris 16e Arrondissement,75,,,75116000ES0038,,,16,11.53,,,,,,,,,1,3,Dépendance,,0,,,,,,2.282259,48.870545
2016-1256679,2016-02-19,000001,Vente,284050,45,,RUE DES VIGNES,9799,75016,75116,Paris 16e Arrondissement,75,,,75116000CK0004,,,149,33.38,42,,,,,,,,2,2,Appartement,33,1,,,,,,2.275481,48.85562
2016-1256680,2016-03-03,000001,Vente,767500,10,,RUE DU PERE BROTTIER,7254,75016,75116,Paris 16e Arrondissement,75,,,75116000BX0040,,,16,85.14,,,,,,,,,1,2,Appartement,86,4,,,,,,2.271078,48.849659
2016-1256680,2016-03-03,000001,Vente,767500,10,,RUE DU PERE BROTTIER,7254,75016,75116,Paris 16e Arrondissement,75,,,75116000BX0040,,,16,85.14,,,,,,,,,1,3,Dépendance,,0,,,,,,2.271078,48.849659
2016-1256681,2016-02-17,000001,Vente,60000,8,,RUE DE VARIZE,9603,75016,75116,Paris 16e Arrondissement,75,,,75116000AV0033,,,86,,,,,,,,,,1,3,Dépendance,,0,,,,,,2.258009,48.841195
2016-1256682,2016-02-23,000001,Vente,50000,10,,RUE ALBERIC MAGNARD,0112,75016,75116,Paris 16e Arrondissement,75,,,75116000DG0051,,,156,,,,,,,,,,1,3,Dépendance,,0,,,,,,2.271962,48.860846
2016-1256683,2016-02-09,000001,Vente,726000,90,,BD FLANDRIN,3663,75016,75116,Paris 16e Arrondissement,75,,,75116000ER0009,,,55,,56,,7,,,,,,3,2,Appartement,278,7,,,,,,2.275936,48.870258
2016-1256684,2016-02-12,000001,Vente,2273000,55,,AV FOCH,3696,75016,75116,Paris 16e Arrondissement,75,,,75116000ES0027,,,21,,,,,,,,,,1,2,Appartement,250,6,,,,,,2.281686,48.871452
2016-1256684,2016-02-12,000001,Vente,2273000,55,,AV FOCH,3696,75016,75116,Paris 16e Arrondissement,75,,,75116000ES0027,,,21,,,,,,,,,,1,3,Dépendance,,0,,,,,,2.281686,48.871452
2016-1256684,2016-02-12,000001,Vente,2273000,55,,AV FOCH,3696,75016,75116,Paris 16e Arrondissement,75,,,75116000ES0027,,,21,,,,,,,,,,1,3,Dépendance,,0,,,,,,2.281686,48.871452
2016-1256685,2016-02-19,000001,Vente,404000,63,,BD DE BEAUSEJOUR,0794,75016,75116,Paris 16e Arrondissement,75,,,75116000CP0009,,,2,,55,42.71,,,,,,,2,2,Appartement,43,2,,,,,,2.265992,48.856189
2016-1256686,2016-02-16,000001,Vente,215000,38,,AV BUGEAUD,1373,75016,75116,Paris 16e Arrondissement,75,,,75116000ES0003,,,438,27.04,,,,,,,,,1,2,Appartement,28,1,,,,,,2.28029,48.871156
2016-1256687,2016-02-11,000001,Vente,497500,33,,AV FOCH,3696,75016,75116,Paris 16e Arrondissement,75,,,75116000FD0013,,,74,40.6,,,,,,,,,1,2,Appartement,42,1,,,,,,2.286709,48.871955
2016-1256688,2016-02-24,000001,Vente,160000,46,,RUE DE LA POMPE,7587,75016,75116,Paris 16e Arrondissement,75,,,75116000DL0004,,,1133,,,,,,,,,,1,3,Dépendance,,0,,,,,,2.276278,48.86156
2016-1256688,2016-02-24,000001,Vente,160000,46,,RUE DE LA POMPE,7587,75016,75116,Paris 16e Arrondissement,75,,,75116000DL0004,,,1131,,,,,,,,,,1,3,Dépendance,,0,,,,,,2.276278,48.86156
2016-1256689,2016-02-15,000001,Vente,1370000,5,,SQ DU TROCADERO,9453,75016,75116,Paris 16e Arrondissement,75,,,75116000DT0028,,,4,181.93,56,,,,,,,,2,2,Appartement,178,7,,,,,,2.282475,48.862737
2016-1256690,2016-02-19,000001,Vente,80000,46,,RUE DE LA POMPE,7587,75016,75116,Paris 16e Arrondissement,75,,,75116000DL0004,,,1124,,,,,,,,,,1,3,Dépendance,,0,,,,,,2.276278,48.86156
2016-1256691,2016-02-19,000001,Vente,1280000,38,,AV VICTOR HUGO,9761,75016,75116,Paris 16e Arrondissement,75,,,75116000FC0019,,,129,,191,121.86,,,,,,,2,2,Appartement,97,3,,,,,,2.289551,48.871835
2016-1256692,2016-02-29,000001,Vente,750000,33,,RUE DES BELLES FEUILLES,0830,75016,75116,Paris 16e Arrondissement,75,,,75116000DW0137,,,37,,38,,5,72.4,,,,,3,2,Appartement,70,4,,,,,,2.281607,48.867048
2016-1256693,2016-02-17,000001,Vente,300000,7,,RUE BEETHOVEN,0807,75016,75116,Paris 16e Arrondissement,75,,,75116000CG0017,,,2,44.17,20,,,,,,,,2,2,Appartement,41,2,,,,,,2.287124,48.858339
2016-1256694,2016-02-12,000001,Vente,1914200,90,,AV MOZART,6626,75016,75116,Paris 16e Arrondissement,75,,,75116000BR0115,,,61,,62,,,,,,,,2,3,Dépendance,,0,,,,,,2.267311,48.851635
2016-1256694,2016-02-12,000001,Vente,1914200,90,,AV MOZART,6626,75016,75116,Paris 16e Arrondissement,75,,,75116000BR0115,,,61,,62,,,,,,,,2,2,Appartement,200,6,,,,,,2.267311,48.851635
2016-1256695,2016-02-16,000001,Vente,54500,7,,RUE DE MONTEVIDEO,6490,75016,75116,Paris 16e Arrondissement,75,,,75116000ED0037,,,156,,,,,,,,,,1,3,Dépendance,,0,,,,,,2.274444,48.867602
2016-1256696,2016-02-29,000001,Vente,907000,21,,RUE MIRABEAU,6381,75016,75116,Paris 16e Arrondissement,75,,,75116000AK0001,,,111,94.57,128,,,,,,,,2,2,Appartement,90,3,,,,,,2.270959,48.84636
2016-1256697,2016-03-02,000001,Vente,23000,92,,BD FLANDRIN,3663,75016,75116,Paris 16e Arrondissement,75,,,75116000ER0010,,,1344,,,,,,,,,,1,3,Dépendance,,0,,,,,,2.276294,48.870637
2016-1256698,2016-02-12,000001,Vente,496000,3,,RUE CHANEZ,1741,75016,75116,Paris 16e Arrondissement,75,,,75116000AZ0050,,,5,63.46,,,,,,,,,1,2,Appartement,75,3,,,,,,2.260591,48.847425
2016-1256699,2016-02-19,000001,Vente,647860,10,,RUE VICTORIEN SARDOU,9767,75016,75116,Paris 16e Arrondissement,75,,,75116000AI0072,,,102,,115,92.71,,,,,,,2,2,Appartement,92,4,,,,,,2.267939,48.843147
2016-1256700,2016-03-04,000001,Vente,125000,81,,RUE DE L ASSOMPTION,0503,75016,75116,Paris 16e Arrondissement,75,,,75116000BT0036,,,25,,26,,,,,,,,2,3,Dépendance,,0,,,,,,2.266313,48.85531
2016-1256701,2016-02-16,000001,Vente,970000,14,,RUE LE SUEUR,5622,75016,75116,Paris 16e Arrondissement,75,,,75116000FA0073,,,7,105.1,,,,,,,,,1,2,Appartement,95,4,,,,,,2.287979,48.874651
2016-1256702,2016-02-18,000001,Vente,584550,11,,RUE DE VARIZE,9603,75016,75116,Paris 16e Arrondissement,75,,,75116000AS0001,,,19,74.54,,,,,,,,,1,2,Appartement,76,3,,,,,,2.257527,48.840973
2016-1256703,2016-02-24,000001,Vente,62000,41,,RUE GALILEE,3923,75016,75116,Paris 16e Arrondissement,75,,,75116000FH0035,,,106,,,,,,,,,,1,3,Dépendance,,0,,,,,,2.296486,48.870471
2016-1256703,2016-02-24,000001,Vente,62000,41,,RUE GALILEE,3923,75016,75116,Paris 16e Arrondissement,75,,,75116000FH0035,,,117,,,,,,,,,,1,3,Dépendance,,0,,,,,,2.296486,48.870471
2016-1256704,2016-02-12,000001,Vente,40000,73,,AV PAUL DOUMER,7149,75016,75116,Paris 16e Arrondissement,75,,,75116000DO0020,,,16,,,,,,,,,,1,3,Dépendance,,0,,,,,,2.278328,48.85938
2016-1256705,2016-03-08,000001,Vente,37000,49,,AV KLEBER,5159,75016,75116,Paris 16e Arrondissement,75,,,75116000FM0008,,,38,,,,,,,,,,1,3,Dépendance,,0,,,,,,2.291208,48.86781
2016-1256706,2016-02-24,000001,Vente,455000,85,,BD SUCHET,9107,75016,75116,Paris 16e Arrondissement,75,,,75116000BP0004,,,117,68.04,151,,,,,,,,2,2,Appartement,70,3,,,,,,2.260748,48.850154
2016-1256707,2016-02-18,000001,Vente,62000,163,,AV VICTOR HUGO,9761,75016,75116,Paris 16e Arrondissement,75,,,75116000EB0024,,,84,,,,,,,,,,1,3,Dépendance,,0,,,,,,2.278334,48.866126
2016-1256707,2016-02-18,000001,Vente,62000,163,,AV VICTOR HUGO,9761,75016,75116,Paris 16e Arrondissement,75,,,75116000EB0024,,,85,,,,,,,,,,1,3,Dépendance,,0,,,,,,2.278334,48.866126
2016-1256708,2016-02-25,000001,Vente,420000,133,,BD MURAT,6639,75016,75116,Paris 16e Arrondissement,75,,,75116000AE0099,,,14,64.02,15,64.02,19,,36,,,,4,2,Appartement,65,3,,,,,,2.260719,48.837194
2016-1256709,2016-02-16,000001,Vente,30000,31,,RUE JOUVENET,5042,75016,75116,Paris 16e Arrondissement,75,,,75116000AQ0026,,,8,,,,,,,,,,1,3,Dépendance,,0,,,,,,2.264201,48.843047
2016-1256710,2016-03-09,000001,Vente,720000,1,,AV DE CAMOENS,1467,75016,75116,Paris 16e Arrondissement,75,,,75116000DP0104,,,44,,,,,,,,,,1,2,Appartement,193,5,,,,,,2.286792,48.859307
2016-1256710,2016-03-09,000001,Vente,720000,1,,AV DE CAMOENS,1467,75016,75116,Paris 16e Arrondissement,75,,,75116000DP0104,,,15,61.32,,,,,,,,,1,2,Appartement,61,2,,,,,,2.286792,48.859307
2016-1256711,2016-03-09,000001,Vente,50000,86,,AV HENRI MARTIN,4567,75016,75116,Paris 16e Arrondissement,75,,,75116000EI0020,,,22,,,,,,,,,,1,3,Dépendance,,0,,,,,,2.270881,48.863954
2016-1256712,2016-02-17,000001,Vente,820000,8,,AV THEOPHILE GAUTIER,9253,75016,75116,Paris 16e Arrondissement,75,,,75116000BZ0054,,,43,94.27,77,,,,,,,,2,2,Appartement,90,5,,,,,,2.274208,48.850997
2016-1256712,2016-02-17,000001,Vente,820000,8,,AV THEOPHILE GAUTIER,9253,75016,75116,Paris 16e Arrondissement,75,,,75116000BZ0054,,,49,,,,,,,,,,1,3,Dépendance,,0,,,,,,2.274208,48.850997
2016-1256713,2016-03-01,000001,Vente,1620000,4,,PL DE MEXICO,6310,75016,75116,Paris 16e Arrondissement,75,,,75116000DW0107,,,16,163,20,,23,20.2,24,9.3,31,163,5,2,Appartement,198,5,,,,,,2.283705,48.8657
2016-1256713,2016-03-01,000001,Vente,1620000,4,,PL DE MEXICO,6310,75016,75116,Paris 16e Arrondissement,75,,,75116000DW0107,,,29,8.6,,,,,,,,,1,3,Dépendance,,0,,,,,,2.283705,48.8657
2016-1256714,2016-02-15,000001,Vente,107000,26,,RUE DE L YVETTE,9990,75016,75116,Paris 16e Arrondissement,75,,,75116000BT0012,,,21,13.55,,,,,,,,,1,2,Appartement,15,1,,,,,,2.266684,48.853808
2016-1256715,2016-02-15,000001,Vente,1300000,60,,AV VICTOR HUGO,9761,75016,75116,Paris 16e Arrondissement,75,,,75116000FE0013,,,54,,,,,,,,,,1,2,Appartement,259,5,,,,,,2.28669,48.870681
2016-1256715,2016-02-15,000001,Vente,1300000,60,,AV VICTOR HUGO,9761,75016,75116,Paris 16e Arrondissement,75,,,75116000FE0013,,,103,130.3,,,,,,,,,1,2,Appartement,137,4,,,,,,2.28669,48.870681
2016-1256716,2016-02-24,000001,Vente,2185000,30,,RUE JEAN DE LA FONTAINE,5249,75016,75116,Paris 16e Arrondissement,75,,,75116000BU0045,,,33,246.08,40,,,,,,,,2,2,Appartement,247,8,,,,,,2.272894,48.851722
2016-1256716,2016-02-24,000001,Vente,2185000,30,,RUE JEAN DE LA FONTAINE,5249,75016,75116,Paris 16e Arrondissement,75,,,75116000BU0045,,,39,,,,,,,,,,1,2,Appartement,40,1,,,,,,2.272894,48.851722
2016-1256716,2016-02-24,000001,Vente,2185000,30,,RUE JEAN DE LA FONTAINE,5249,75016,75116,Paris 16e Arrondissement,75,,,75116000BU0045,,,50,,,,,,,,,,1,3,Dépendance,,0,,,,,,2.272894,48.851722
2016-1256716,2016-02-24,000001,Vente,2185000,30,,RUE JEAN DE LA FONTAINE,5249,75016,75116,Paris 16e Arrondissement,75,,,75116000BU0045,,,52,,,,,,,,,,1,3,Dépendance,,0,,,,,,2.272894,48.851722
2016-1256717,2016-02-12,000001,Vente,659000,37,,RUE PAUL VALERY,7186,75016,75116,Paris 16e Arrondissement,75,,,75116000FD0017,,,123,,,,,,,,,,1,3,Dépendance,,0,,,,,,2.287744,48.871652
2016-1256717,2016-02-12,000001,Vente,659000,37,,RUE PAUL VALERY,7186,75016,75116,Paris 16e Arrondissement,75,,,75116000FD0017,,,185,67.12,27,,,,,,,,2,2,Appartement,67,2,,,,,,2.287744,48.871652
2016-1256718,2016-02-19,000001,Vente,985000,17,,RUE MESNIL,6288,75016,75116,Paris 16e Arrondissement,75,,,75116000DW0079,,,1401,,,,,,,,,,1,3,Dépendance,,0,,,,,,2.284633,48.867541
2016-1256718,2016-02-19,000001,Vente,985000,17,,RUE MESNIL,6288,75016,75116,Paris 16e Arrondissement,75,,,75116000DW0079,,,1054,106.7,,,,,,,,,1,2,Appartement,106,4,,,,,,2.284633,48.867541
2016-1256718,2016-02-19,000001,Vente,985000,17,,RUE MESNIL,6288,75016,75116,Paris 16e Arrondissement,75,,,75116000DW0079,,,1414,,,,,,,,,,1,3,Dépendance,,0,,,,,,2.284633,48.867541
2016-1256719,2016-02-24,000001,Vente,1131680,11,,BD DELESSERT,2674,75016,75116,Paris 16e Arrondissement,75,,,75116000DQ0019,,,17,129.1,18,,,,,,,,2,2,Appartement,150,5,,,,,,2.28716,48.858852
2016-1256720,2016-03-07,000001,Vente,1650000,73,,AV PAUL DOUMER,7149,75016,75116,Paris 16e Arrondissement,75,,,75116000DO0020,,,5,174.18,,,,,,,,,1,2,Appartement,185,5,,,,,,2.278328,48.85938
2016-1256721,2016-03-07,000001,Vente,65000,10,,RUE NICOLO,6771,75016,75116,Paris 16e Arrondissement,75,,,75116000DO0056,,,338,,,,,,,,,,1,3,Dépendance,,0,,,,,,2.281038,48.858706
2016-1256722,2016-02-25,000001,Vente,240000,65,,AV FOCH,3696,75016,75116,Paris 16e Arrondissement,75,,,75116000ES0004,,,99,19.29,,,,,,,,,1,3,Dépendance,,0,,,,,,2.280131,48.871434
2016-1256723,2016-02-18,000001,Vente,1225000,2,,SQ HENRY BATAILLE,4602,75016,75116,Paris 16e Arrondissement,75,,,75116000BM0016,,,15,145.87,26,,3,145.87,31,,,,4,2,Appartement,150,4,,,,,,2.263046,48.855463
2016-1256723,2016-02-18,000001,Vente,1225000,2,,SQ HENRY BATAILLE,4602,75016,75116,Paris 16e Arrondissement,75,,,75116000BM0016,,,42,,,,,,,,,,1,3,Dépendance,,0,,,,,,2.263046,48.855463
2016-1256724,2016-02-18,000001,Vente,329100,7,,RUE LEKAIN,5491,75016,75116,Paris 16e Arrondissement,75,,,75116000CJ0036,,,9,36.59,,,,,,,,,1,2,Appartement,37,2,,,,,,2.278541,48.856363
2016-1256725,2016-02-24,000001,Vente,1630000,51,,RUE RAYNOUARD,8066,75016,75116,Paris 16e Arrondissement,75,,,75116000CJ0057,,,42,20.6,,,,,,,,,1,3,Dépendance,,0,,,,,,2.280286,48.854952
2016-1256725,2016-02-24,000001,Vente,1630000,51,,RUE RAYNOUARD,8066,75016,75116,Paris 16e Arrondissement,75,,,75116000CJ0057,,,41,20.6,,,,,,,,,1,3,Dépendance,,0,,,,,,2.280286,48.854952
2016-1256725,2016-02-24,000001,Vente,1630000,51,,RUE RAYNOUARD,8066,75016,75116,Paris 16e Arrondissement,75,,,75116000CJ0057,,,52,,79,172.42,,,,,,,2,2,Appartement,170,3,,,,,,2.280286,48.854952
2016-1256726,2016-02-16,000001,Vente,10000,74,,RUE DU RANELAGH,8029,75016,75116,Paris 16e Arrondissement,75,,,75116000CM0090,,,25,,,,,,,,,,1,3,Dépendance,,0,,,,,,2.271994,48.855228
2016-1256727,2016-03-04,000001,Vente,590000,13,,AV DE VERSAILLES,9706,75016,75116,Paris 16e Arrondissement,75,,,75116000CA0027,,,16,67.8,17,,,,,,,,2,2,Appartement,80,4,,,,,,2.277188,48.850297
2016-1256728,2016-02-22,000001,Vente,115000,17,,AV MAL LYAUTEY,6049,75016,75116,Paris 16e Arrondissement,75,,,75116000BO0001,,,581,14.83,,,,,,,,,1,2,Appartement,15,1,,,,,,2.260423,48.851924
2016-1256729,2016-02-15,000001,Vente,57500,56,,RUE MOLITOR,6411,75016,75116,Paris 16e Arrondissement,75,,,75116000AZ0002,,,15,6.81,,,,,,,,,1,3,Dépendance,,0,,,,,,2.257999,48.845552
2016-1256730,2016-02-23,000001,Vente,401950,7,,RUE BOILEAU,1058,75016,75116,Paris 16e Arrondissement,75,,,75116000AM0004,,,17,47.39,,,,,,,,,1,2,Appartement,48,2,,,,,,2.266107,48.847
2016-1256731,2016-02-29,000001,Vente,15000,33,,RUE DAVIOUD,2606,75016,75116,Paris 16e Arrondissement,75,,,75116000CL0023,,,23,,,,,,,,,,1,2,Appartement,128,5,,,,,,2.270856,48.854725
2016-1256732,2016-02-24,000001,Vente,42500,32,,RUE CHARDON LAGACHE,1790,75016,75116,Paris 16e Arrondissement,75,,,75116000AP0124,,,135,,,,,,,,,,1,3,Dépendance,,0,,,,,,2.26539,48.84431
2016-1256733,2016-02-24,000001,Vente,2051000,5,,RUE HENRI DE BORNIER,4549,75016,75116,Paris 16e Arrondissement,75,,,75116000DG0012,,,9,189.9,,,,,,,,,1,2,Appartement,192,6,,,,,,2.270986,48.861482
2016-1256734,2016-02-15,000001,Vente,320000,54,,BD EXELMANS,3465,75016,75116,Paris 16e Arrondissement,75,,,75116000AQ0013,,,63,,,,,,,,,,1,2,Appartement,69,3,,,,,,2.26261,48.842303
2016-1256734,2016-02-15,000001,Vente,320000,54,,BD EXELMANS,3465,75016,75116,Paris 16e Arrondissement,75,,,75116000AQ0013,,,3,40.6,,,,,,,,,1,2,Appartement,41,2,,,,,,2.26261,48.842303
2016-1256735,2016-02-19,000001,Vente,52000,4,,RUE DES EAUX,3070,75016,75116,Paris 16e Arrondissement,75,,,75116000CG0037,,,53,8.82,,,,,,,,,1,3,Dépendance,,0,,,,,,2.285112,48.857434
2016-1256736,2016-02-26,000001,Vente,444100,95,,RUE DE LONGCHAMP,5744,75016,75116,Paris 16e Arrondissement,75,,,75116000DV0026,,,19,27.6,4,,,,,,,,2,2,Appartement,29,2,,,,,,2.282295,48.865533
2016-1256737,2016-02-26,000001,Vente,534000,95,,AV DE VERSAILLES,9706,75016,75116,Paris 16e Arrondissement,75,,,75116000AK0020,,,1,83.54,,,,,,,,,1,2,Appartement,137,0,,,,,,2.272104,48.845387
2016-1256738,2016-02-15,000001,Vente,233350,8,,RUE CHAPU,1778,75016,75116,Paris 16e Arrondissement,75,,,75116000AG0012,,,26,31.21,40,,,,,,,,2,2,Appartement,34,2,,,,,,2.26644,48.841006
2016-1256739,2016-02-23,000001,Vente,1250000,1,,RUE DU CONSEILLER COLLIGNON,2277,75016,75116,Paris 16e Arrondissement,75,,,75116000DN0003,,,78,125.5,9,,,,,,,,2,2,Appartement,130,4,,,,,,2.273589,48.860028
2016-1256740,2016-02-24,000001,Vente,65500,14,,RUE GEORGE SAND,4116,75016,75116,Paris 16e Arrondissement,75,,,75116000BX0025,,,59,7.72,,,,,,,,,1,3,Dépendance,,0,,,,,,2.269355,48.84938
2016-1256740,2016-02-24,000001,Vente,65500,14,,RUE GEORGE SAND,4116,75016,75116,Paris 16e Arrondissement,75,,,75116000BX0025,,,59,7.72,,,,,,,,,1,2,Appartement,92,4,,,,,,2.269355,48.84938
2016-1256741,2016-02-17,000001,Vente,281300,53,,RUE CLAUDE TERRASSE,2084,75016,75116,Paris 16e Arrondissement,75,,,75116000AE0094,,,35,35.02,71,,,,,,,,2,2,Appartement,28,2,,,,,,2.261037,48.837395
2016-1256742,2016-02-23,000001,Vente,370000,38,,RUE DESBORDES VALMORE,2722,75016,75116,Paris 16e Arrondissement,75,,,75116000DM0099,,,10,36.09,9,,,,,,,,2,2,Appartement,36,2,,,,,,2.276483,48.860171
2016-1256743,2016-02-25,000001,Vente,740000,21,,RUE PIERRE GUERIN,7439,75016,75116,Paris 16e Arrondissement,75,,,75116000BQ0067,,,36,,8,82.55,,,,,,,2,2,Appartement,67,2,,,,,,2.265672,48.849413
2016-1256744,2016-03-10,000001,Vente,298000,25,,RUE DE L ANNONCIATION,0362,75016,75116,Paris 16e Arrondissement,75,,,75116000CJ0039,,,1,,18,28.53,19,28.53,,,,,3,2,Appartement,28,2,,,,,,2.279013,48.85655
2016-1256745,2016-03-07,000001,Vente,60000,95,,AV DE VERSAILLES,9706,75016,75116,Paris 16e Arrondissement,75,,,75116000AK0020,,,18,5.66,,,,,,,,,1,2,Appartement,5,1,,,,,,2.272104,48.845387
2016-1256746,2016-02-18,000001,Vente,432500,29,,AV PERRICHONT,7290,75016,75116,Paris 16e Arrondissement,75,,,75116000BZ0096,,,13,52.86,34,,,,,,,,2,2,Appartement,52,2,,,,,,2.273796,48.849322
2016-1256747,2016-03-03,000001,Vente,45000,61,,AV GEORGES MANDEL,4141,75016,75116,Paris 16e Arrondissement,75,,,75116000DJ0125,,,17,,,,,,,,,,1,3,Dépendance,,0,,,,,,2.278865,48.863565
2016-1256748,2016-03-07,000001,Vente,492500,13,,RUE DE BASSANO,0703,75016,75116,Paris 16e Arrondissement,75,,,75116000FI0025,,,108,54.41,135,,139,,,,,,3,2,Appartement,50,3,,,,,,2.296748,48.869099
2016-1256749,2016-03-07,000001,Vente,549000,50,,RUE VITAL,9886,75016,75116,Paris 16e Arrondissement,75,,,75116000DO0003,,,23,57.76,57,,,,,,,,2,2,Appartement,60,3,,,,,,2.27734,48.858322
2016-1256750,2016-02-19,000001,Vente,317400,20,,RUE GUSTAVE COURBET,4406,75016,75116,Paris 16e Arrondissement,75,,,75116000DW0143,,,2,38.81,32,,,,,,,,2,2,Appartement,40,2,,,,,,2.281432,48.866874
2016-1256751,2016-02-26,000001,Vente,176000,7,,RUE DOCTEUR GERMAIN SEE,2832,75016,75116,Paris 16e Arrondissement,75,,,75116000CD0030,,,88,9.05,,,,,,,,,1,2,Appartement,11,1,,,,,,2.279641,48.853845
2016-1256751,2016-02-26,000001,Vente,176000,7,,RUE DOCTEUR GERMAIN SEE,2832,75016,75116,Paris 16e Arrondissement,75,,,75116000CD0030,,,89,9.05,,,,,,,,,1,2,Appartement,11,1,,,,,,2.279641,48.853845
2016-1256752,2016-02-16,000001,Vente,455000,109,,AV VICTOR HUGO,9761,75016,75116,Paris 16e Arrondissement,75,,,75116000DX0060,,,111,45.72,,,,,,,,,1,2,Appartement,38,3,,,,,,2.283315,48.868353
2016-1256753,2016-03-10,000001,Vente,1270000,67,,RUE JEAN DE LA FONTAINE,5249,75016,75116,Paris 16e Arrondissement,75,,,75116000BX0018,,,10,145.95,51,,,,,,,,2,2,Appartement,135,6,,,,,,2.267109,48.849007
2016-1256754,2016-02-18,000001,Vente,718000,129,,RUE LAURISTON,5401,75016,75116,Paris 16e Arrondissement,75,,,75116000DW0124,,,11,74.33,,,,,,,,,1,2,Appartement,72,4,,,,,,2.285675,48.865459
2016-1256755,2016-02-17,000001,Vente,3000000,56,,AV VICTOR HUGO,9761,75016,75116,Paris 16e Arrondissement,75,,,75116000FE0022,,,72,10.83,,,,,,,,,1,3,Dépendance,,0,,,,,,2.287058,48.870744
2016-1256755,2016-02-17,000001,Vente,3000000,56,,AV VICTOR HUGO,9761,75016,75116,Paris 16e Arrondissement,75,,,75116000FE0022,,,70,,,,,,,,,,1,3,Dépendance,,0,,,,,,2.287058,48.870744
